"Brand","Store_Number","Name","Ownership_Type","Features_Products","Features_Service","Features_Stations","Score","Phone_Number","Street_Address","City","State","ZIP","Latitude","Longitude"
"Starbucks","11854","Epping Main St","Company Owned","""Lunch, Oven-warmed Food, Reserve Amenity""","""Starbucks Card Mobile, Wireless Hotspot""","Drive-Through","10","603-679-8789","96 Calef Highway","Epping","NH","3042","43.031873","-71.073203"
"Starbucks","79420","Stop & Shop-Exeter #204","Licensed","","Wireless Hotspot","","1","603-772-1783","139 Portsmouth Ave","Exeter","NH","3833","42.989763","-70.932044"
"Starbucks","3872","Target Greenland T-2530","Licensed","","Starbucks Card Mobile","","2","603-501-1470","1450 Greenland Rd","Greenland","NH","3840","43.04871","-70.816345"
"Starbucks","13448","""Seabrook, Lafayette Rd""","Company Owned","""Lunch, Oven-warmed Food, Reserve Amenity, Sirena Espresso Machine""","""Starbucks Card Mobile, Wireless Hotspot""","Drive-Through","13","603-474-3674","271 Lafayette Rd","Seabrook","NH","3874","42.882128","-70.86808"
"Starbucks","10325","""Portsmouth, Woodbury Avenue""","Company Owned","""Lunch, Oven-warmed Food, Reserve Amenity""","""Starbucks Card Mobile, Wireless Hotspot""","Drive-Through","10","603-436-1547","1855 Woodbury Avenue","Portsmouth","NH","3801","43.092318","-70.792327"
"Starbucks","7459","Portsmouth/Market Square/Cigar Stor","Company Owned","""Lunch, Oven-warmed Food, Reserve Amenity, Sirena Espresso Machine""","""Starbucks Card Mobile, Wireless Hotspot""","","12","603-433-4471","""1 Market Square, Suite 17D""","Portsmouth","NH","3801","43.077086","-70.758064"
"Starbucks","11182","""Haverhill, 1116 Main St""","Company Owned","""Lunch, Oven-warmed Food, Reserve Amenity""","""Starbucks Card Mobile, Wireless Hotspot""","Drive-Through","10","978-372-3485","1116 Main Street","Haverhill","MA","1830","42.807206","-71.102071"
"Starbucks","7329","Newburyport","Company Owned","""Clover Crafted Small Batch Coffee, Lunch, Oven-warmed Food, Reserve Amenity, Sirena Espresso Machine""","""Starbucks Card Mobile, Wireless Hotspot""","","17","978-462-4475","23 Market Square","Newburyport","MA","1950","42.811138","-70.869501"
"Starbucks","7907","Kittery","Company Owned","""Lunch, Oven-warmed Food, Sirena Espresso Machine""","""Starbucks Card Mobile, Wireless Hotspot""","","10","207-451-9701","""306 Highway 1, M150""","Kittery","ME","3904","43.111116","-70.734091"
"Starbucks","76864","Target Haverhill T-2325","Licensed","","Starbucks Card Mobile","","2","978-377-9003","35 Computer Dr","Haverhill","MA","1832","42.786955","-71.115836"
"Starbucks","9991","""Dover, NH""","Company Owned","""Lunch, Oven-warmed Food, Reserve Amenity, Sirena Espresso Machine""","""Starbucks Card Mobile, Wireless Hotspot""","Drive-Through","13","603-742-1867","11 Webb Place","Dover","NH","3820","43.221256","-70.888115"
"Starbucks","76677","Target - Somersworth T-2182","Licensed","","Starbucks Card Mobile","","2","603-692-6750","11 Andrews Rd","Somersworth","NH","3878","43.232909","-70.8818"
"Starbucks","7570","Methuen/The Loop","Company Owned","""Lunch, Oven-warmed Food, Reserve Amenity, Sirena Espresso Machine""","""Starbucks Card Mobile, Wireless Hotspot""","","12","978-681-5284","""90 Pleasant Valley St, Unit 170""","Methuen","MA","1844","42.744153230002","-71.157345224281"
"Starbucks","16926","Target Salem T-1186","Licensed","","","","0","603-870-0071","203 S Broadway","Salem","NH","3079","42.764387","-71.216689"
"Starbucks","76855","Target Methuen T-2287","Licensed","","Starbucks Card Mobile","","2","978-983-0013","67 Pleasant Valley St","Methuen","MA","1844","42.741881","-71.160069"
"Starbucks","13411","""Manchester, S. Willow St.""","Company Owned","""Lunch, Oven-warmed Food, Reserve Amenity""","""Starbucks Card Mobile, Wireless Hotspot""","Drive-Through","10","603-641-4839","1111 South Willow St","Manchester","NH","3103","42.960288","-71.438445"
"Starbucks","76481","Target Bedford T-2009","Licensed","","Starbucks Card Mobile","","2","603-263-0061","220 S River Rd","Bedford","NH","3110","42.94327","-71.4741"
"Starbucks","7773","N Andover/Rte 114","Company Owned","""Lunch, Oven-warmed Food, Reserve Amenity, Sirena Espresso Machine""","""Starbucks Card Mobile, Wireless Hotspot""","","12","978-975-7229","562 Turnpike Street","North Andover","MA","1845","42.665865","-71.115143"
"Starbucks","885","Andover","Company Owned","""Clover Crafted Small Batch Coffee, Lunch, Oven-warmed Food, Reserve Amenity""","""Starbucks Card Mobile, Wireless Hotspot""","","14","978-475-7752","14 Main Street","Andover","MA","1810","42.656393","-71.140289"
"Starbucks","9716","""Concord, Loudon Road""","Company Owned","""Lunch, Oven-warmed Food, Reserve Amenity, Sirena Espresso Machine""","""Starbucks Card Mobile, Wireless Hotspot""","Drive-Through","13","603-223-2395","240 Loudon Road","Concord","NH","3301","43.222904","-71.491969"
"Starbucks","7960","Nashua Mall Power Center","Company Owned","""Lunch, Oven-warmed Food, Reserve Amenity, Sirena Espresso Machine""","""Starbucks Card Mobile, Wireless Hotspot""","Drive-Through","13","603-579-4761","10 Coliseum Avenue","Nashua","NH","3063","42.76513","-71.49744"
"Starbucks","7450","Beverly","Company Owned","""Lunch, Oven-warmed Food, Reserve Amenity, Sirena Espresso Machine""","""Starbucks Card Mobile, Wireless Hotspot""","","12","978-922-0885","29 Enon Street","Beverly","MA","1915","42.585366","-70.88444"
"Starbucks","10278","Pheasant Lane Mall","Company Owned","""Lunch, Sirena Espresso Machine""","""Starbucks Card Mobile, Wireless Hotspot""","","8","603-897-1860","""310 Daniel Webster Hwy., E281""","Nashua","NH","3060","42.700708","-71.436142"
"Starbucks","11531","""Nashua, 611 Amherst St""","Company Owned","""Lunch, Oven-warmed Food, Reserve Amenity""","""Starbucks Card Mobile, Wireless Hotspot""","Drive-Through","10","603-883-1600","611 Amherst St.","Nashua","NH","3063","42.80103","-71.537014"
"Starbucks","5107","Target Lowell T-2480","Licensed","","Starbucks Card Mobile","","2","978-703-2020","199 Plain St","Lowell","MA","1852","42.62462","-71.31845"
"Starbucks","11848","""Beverly, 242 Elliott St""","Company Owned","""Lunch, Oven-warmed Food, Reserve Amenity""","Starbucks Card Mobile","Drive-Through","7","978-927-0748","242 Elliott St.","Beverly","MA","1915","42.556249","-70.890407"
"Starbucks","7658","Chelmsford","Company Owned","""Clover Crafted Small Batch Coffee, Lunch, Oven-warmed Food, Reserve Amenity, Sirena Espresso Machine""","""Starbucks Card Mobile, Wireless Hotspot""","","17","978-458-2464","101 Drum Hill Road","Chelmsford","MA","1824","42.623739","-71.36431"
"Starbucks","833","Peabody","Company Owned","""Lunch, Oven-warmed Food, Reserve Amenity, Sirena Espresso Machine""","""Starbucks Card Mobile, Wireless Hotspot""","","12","978-531-8224","240 Andover Street","Peabody","MA","1960","42.545939","-70.946655"
"Starbucks","2765","North Shore Mall","Company Owned","""Lunch, Oven-warmed Food""","""Starbucks Card Mobile, Wireless Hotspot""","","7","978-531-1331","""210 Andover Street, Space W 133""","Peabody","MA","1960","42.54524","-70.94468"
"Starbucks","11757","Wilmington Crossing","Company Owned","""Lunch, Oven-warmed Food""","""Starbucks Card Mobile, Wireless Hotspot""","Drive-Through","8","978-658-2541","""271 Main St., Space #253""","Wilmington","MA","1887","42.555543","-71.181095"
"Starbucks","8650","Billerica","Company Owned","""Lunch, Oven-warmed Food""","""Starbucks Card Mobile, Wireless Hotspot""","Drive-Through","8","978-436-9180","""199 Boston Road, Unit 15""","Billerica","MA","1862","42.581632","-71.289347"
"Starbucks","9269","Reading Walkers Brook","Company Owned","""Lunch, Oven-warmed Food, Reserve Amenity, Sirena Espresso Machine""","""Starbucks Card Mobile, Wireless Hotspot""","","12","781-942-8290","24 Walkers Brook Drive","Reading","MA","1867","42.519991","-71.093858"
"Starbucks","7356","Salem-Dodge Street","Company Owned","""Lunch, Oven-warmed Food, Reserve Amenity""","""Starbucks Card Mobile, Wireless Hotspot""","","9","978-825-0824","211 Washington Street","Salem","MA","1970","42.518951","-70.894874"
"Starbucks","7772","Reading","Company Owned","""Lunch, Oven-warmed Food""","""Starbucks Card Mobile, Wireless Hotspot""","","7","781-942-0168","288 Main Street","Reading","MA","1867","42.515659","-71.104029"
"Starbucks","15489","Target Woburn T-1266","Licensed","","","","0","781-904-0002","101 Commerce Way","Woburn","MA","1801","42.518122","-71.135588"
"Starbucks","9984","""Woburn, Commerce Way""","Company Owned","""Lunch, Oven-warmed Food, Reserve Amenity""","""Starbucks Card Mobile, Wireless Hotspot""","Drive-Through","10","781-933-4672","99 Commerce Way","Woburn","MA","1801","42.517323483467","-71.135712417913"
"Starbucks","75861","Maine Turnpike Kennebunk North","Licensed","","","","0","207-985-4234","maine Trnpike Northbound exit 24","Kennebunk","ME","4043","43.385365","-70.54211"
"Starbucks","75860","""Kennebunk South, Maine Turnpike""","Licensed","","","","0","207-985-4817","Maine Turnpike Southbound MM 24","kennebunk","ME","4043","43.385365","-70.54211"
"Starbucks","7812","""Woburn, West Cummings Park""","Company Owned","""Lunch, Oven-warmed Food, Sirena Espresso Machine""","""Starbucks Card Mobile, Wireless Hotspot""","","10","781-938-9305","""200 W Cummings Park, 1""","Woburn","MA","1801","42.49818","-71.125908"
"Starbucks","7522","Marblehead","Company Owned","""Lunch, Oven-warmed Food, Reserve Amenity""","""Starbucks Card Mobile, Wireless Hotspot""","","9","781-639-0368","89 Pleasant Street","Marblehead","MA","1945","42.502632","-70.856048"
"Starbucks","13978","""Saugus, The Shops at Saugus""","Company Owned","""Lunch, Oven-warmed Food""","Starbucks Card Mobile","Drive-Through","5","781-231-4928","366 B Broadway","Saugus","MA","1906","42.488115938014","-71.0194"
"Starbucks","802","Swampscot","Company Owned","""Lunch, Oven-warmed Food, Reserve Amenity, Sirena Espresso Machine""","""Starbucks Card Mobile, Wireless Hotspot""","","12","781-581-9001","1016 Paradise Road","Swampscott","MA","1907","42.484973","-70.901011"
"Starbucks","7269","Saugus","Company Owned","""Clover Crafted Small Batch Coffee, Lunch, Oven-warmed Food, Reserve Amenity""","""Starbucks Card Mobile, Wireless Hotspot""","","14","781-233-4173","723 Broadway","Saugus","MA","1906","42.478313","-71.023173"
"Starbucks","9913","Westford Valley Marketplace","Company Owned","""Lunch, Oven-warmed Food, Reserve Amenity""","""Starbucks Card Mobile, Wireless Hotspot""","","9","978-392-5926","174 Littleton Road","Westford","MA","1886","42.566563","-71.421995"
"Starbucks","7279","Marketplace at Burlington","Company Owned","""Clover Crafted Small Batch Coffee, Lunch, Oven-warmed Food, Reserve Amenity, Sirena Espresso Machine""","""Starbucks Card Mobile, Wireless Hotspot""","","17","781-273-6544","""84 Burlington Mall Road, Suite D""","Burlington","MA","1803","42.48755","-71.20229"
"Starbucks","10598","""Bedford, Great Road""","Company Owned","""Lunch, Oven-warmed Food, Reserve Amenity, Sirena Espresso Machine""","""Starbucks Card Mobile, Wireless Hotspot""","","12","781-275-0992","186 Great Road","Bedford","MA","1730","42.489622","-71.27235"
"Starbucks","7258","Melrose Center","Company Owned","""Lunch, Oven-warmed Food, Reserve Amenity""","""Starbucks Card Mobile, Wireless Hotspot""","","9","781-662-0217","521 Main Street","Melrose","MA","2176","42.455468","-71.064841"
"Starbucks","876","Winchester","Company Owned","""Lunch, Oven-warmed Food, Reserve Amenity""","""Starbucks Card Mobile, Wireless Hotspot""","","9","781-729-1626","542 Main Street","Winchester","MA","1890","42.45203","-71.136821"
"Starbucks","7553","Lexington/Bedford Rd","Company Owned","""Clover Crafted Small Batch Coffee, Lunch, Oven-warmed Food, Reserve Amenity, Sirena Espresso Machine""","""Starbucks Card Mobile, Wireless Hotspot""","","17","781-863-1189","60 Bedford Street","Lexington","MA","2420","42.453613","-71.233316"
"Starbucks","866","Lexington","Company Owned","""Lunch, Oven-warmed Food""","""Starbucks Card Mobile, Wireless Hotspot""","","7","781-863-8485","1729 Massachusetts Ave","Lexington","MA","2420","42.4475","-71.226705"
"Starbucks","76681","Target Biddeford T-2166","Licensed","","Starbucks Card Mobile","","2","207-284-2510","585 Alfred Rd","Biddeford","ME","4005","43.474469","-70.513594"
"Starbucks","7283","Medford - Star Market","Company Owned","""Lunch, Oven-warmed Food, Reserve Amenity""","""Starbucks Card Mobile, Wireless Hotspot""","","9","781-396-3630","2151 Mystic Valley Parkway","Medford","MA","2155","42.417173","-71.126646"
"Starbucks","7364","""Mass. Ave., Arlington""","Company Owned","""Lunch, Oven-warmed Food, Reserve Amenity""","""Starbucks Card Mobile, Wireless Hotspot""","","9","781-646-9366","1465 Massachusetts Ave","Arlington","MA","2476","42.425296","-71.188507"
"Starbucks","7205","Arlington","Company Owned","""Lunch, Oven-warmed Food, Reserve Amenity""","""Starbucks Card Mobile, Wireless Hotspot""","","9","781-641-2893","327 Broadway","Arlington","MA","2474","42.414751","-71.15099"
"Starbucks","8988","Station Landing","Company Owned","""Clover Crafted Small Batch Coffee, Lunch, Oven-warmed Food, Reserve Amenity""","""Starbucks Card Mobile, Wireless Hotspot""","","14","781-395-0660","""5 Revere Beach Pkwy., Station Landing Phase 1""","Medford","MA","2155","42.404329","-71.081279"
"Starbucks","10037","""Tilton, Tanger Outlet""","Company Owned","""Lunch, Oven-warmed Food, Reserve Amenity""","""Starbucks Card Mobile, Wireless Hotspot""","","9","603-286-2640","""120 Laconia Road, Suite 100""","Tilton","NH","3276","43.457104","-71.563661"
"Starbucks","76315","Target Revere T-1942","Licensed","","Starbucks Card Mobile","","2","781-922-6030","36 Furlong Dr","Revere","MA","2151","42.400825","-71.001876"
"Starbucks","816","Concord","Company Owned","""Clover Crafted Small Batch Coffee, Lunch, Reserve Amenity""","""Starbucks Card Mobile, Wireless Hotspot""","","12","978-287-0183","159 Sudbury Road","Concord","MA","1742","42.455669","-71.355854"
"Starbucks","15208","Target Everett T-1229","Licensed","","","","0","617-420-0000","1 Mystic View Rd","Everett","MA","2149","42.401847","-71.069932"
"Starbucks","14138","East Boston","Company Owned","""Lunch, Oven-warmed Food""","""Starbucks Card Mobile, Wireless Hotspot""","Drive-Through","8","617-561-3704","430 McClellan Highway","East Boston","MA","2128","42.393203","-71.012803"
"Starbucks","78032","BOS Term B AA Pre-Security","Licensed","","","","0","617-634-6097","440 McClellan Highway","Boston","MA","2128","42.393095","-71.013054"
"Starbucks","7502","Davis Square Plaza","Company Owned","""Clover Crafted Small Batch Coffee, Lunch, Oven-warmed Food, Reserve Amenity, Sirena Espresso Machine""","""Starbucks Card Mobile, Wireless Hotspot""","","17","617-623-4497","260 Elm Street","Somerville","MA","2144","42.395759","-71.122297"
"Starbucks","871","Belmont","Company Owned","""Lunch, Oven-warmed Food, Reserve Amenity""","""Starbucks Card Mobile, Wireless Hotspot""","","9","617-484-3213","47 Leonard St.","Belmont","MA","2478","42.397256","-71.175393"
"Starbucks","7835","""Acton, Kelly's Corner""","Company Owned","""Lunch, Oven-warmed Food, Reserve Amenity, Sirena Espresso Machine""","""Starbucks Card Mobile, Wireless Hotspot""","","12","978-264-1992","411 Massachusettes Ave","Acton","MA","1720","42.47491","-71.451609"
"Starbucks","8873","""Cambridge, Fresh Pond""","Company Owned","""Lunch, Oven-warmed Food, Reserve Amenity""","""Starbucks Card Mobile, Wireless Hotspot""","","9","617-876-1070","222 Alewife Brook Parkway","Cambridge","MA","2138","42.389322","-71.141328"
"Starbucks","2764","Somerville Avenue","Company Owned","""Lunch, Oven-warmed Food, Reserve Amenity""","""Starbucks Card Mobile, Wireless Hotspot""","","9","617-776-6783","711-723 Somerville Ave","Somerville","MA","2143","42.386083","-71.114181"
"Starbucks","827","Shepard Post","Company Owned","""Lunch, Oven-warmed Food, Reserve Amenity""","""Starbucks Card Mobile, Wireless Hotspot""","","9","617-491-0442","1662 Massachusetts Ave","Cambridge","MA","2138","42.381903","-71.119934"
"Starbucks","16917","Target Somerville T-1441","Licensed","","","","0","617-766-4036","180 Somerville Ave","Somerville","MA","2143","42.377651","-71.090108"
"Starbucks","75650","BOS - Terminal E - Food Court","Licensed","","","","0","617-634-6097","Boston Logan Term E Food Court","East Boston","MA","2128","42.370131","-71.019672"
"Starbucks","810","Broadway Marketplace","Company Owned","""Lunch, Oven-warmed Food""","""Starbucks Card Mobile, Wireless Hotspot""","","7","617-491-9911","468 Broadway","Cambridge","MA","2138","42.373886","-71.11295"
"Starbucks","7241","31 Church","Company Owned","""Lunch, Oven-warmed Food, Reserve Amenity""","""Starbucks Card Mobile, Wireless Hotspot""","","9","617-492-7870","31 Church Street","Cambridge","MA","2138","42.374494","-71.12017"
"Starbucks","7538","Belmont/Cushing Sq","Company Owned","""Clover Crafted Small Batch Coffee, Lunch, Oven-warmed Food, Reserve Amenity""","""Starbucks Card Mobile, Wireless Hotspot""","","14","617-489-8767","112 Trapelo Rd","Belmont","MA","2478","42.380603","-71.175129"
"Starbucks","7102","Harvard Yard","Company Owned","""Clover Crafted Small Batch Coffee, Lunch, Oven-warmed Food, Reserve Amenity""","Wireless Hotspot","","10","617-354-3726","1380 Mass Ave","Cambridge","MA","2138","42.373456","-71.119328"
"Starbucks","861","Harvard Square","Company Owned","""Clover Crafted Small Batch Coffee, Lunch, Oven-warmed Food, Reserve Amenity""","""Starbucks Card Mobile, Wireless Hotspot""","","14","617-492-4881","36 JFK Street","Cambridge","MA","2138","42.372485","-71.119452"
"Starbucks","75840","BOS Boston/Logan Airport Term C","Licensed","","","","0","617-594-3506","Logan Airport terminal C","Boston","MA","2128","42.366954","-71.016337"
"Starbucks","16158","BOS Terminal C Pier B","Licensed","","","","0","617-634-6031","300 Terminal C Gate C11","East Boston","MA","2128","42.366954","-71.016337"
"Starbucks","7436","Cambridgeside","Company Owned","""Lunch, Oven-warmed Food""","""Starbucks Card Mobile, Wireless Hotspot""","","7","617-621-9507","""100 Cambridgeside Place, Suite E108""","Cambridge","MA","2141","42.367158","-71.076366"
"Starbucks","7550","Two Atlantic Avenue","Company Owned","""Clover Crafted Small Batch Coffee, Lunch, Oven-warmed Food, Reserve Amenity, Sirena Espresso Machine""","""Starbucks Card Mobile, Wireless Hotspot""","","17","617-723-7819","2 Atlantic Avenue","Boston","MA","2110","42.36392","-71.050292"
"Starbucks","75534","BOS - Gate 25","Licensed","","","","0","617-938-4567","Gate 25","East Boston","MA","2128","42.362417974617","-71.018339108392"
"Starbucks","7338","Central Square","Company Owned","""Lunch, Oven-warmed Food, Reserve Amenity""","""Starbucks Card Mobile, Wireless Hotspot""","","9","617-354-5471","655 Massachussets Ave","Cambridge","MA","2139","42.365661","-71.103707"
"Starbucks","75649","BOS - Terminal B - Pier B","Licensed","","","","0","617-634-6097","Boston Logan Term B Pier A-Tampopo","East Boston","MA","2128","42.36205","-71.019871"
"Starbucks","8742","Cambridge Center","Company Owned","""Clover Crafted Small Batch Coffee, Lunch, Oven-warmed Food, Reserve Amenity""","""Starbucks Card Mobile, Wireless Hotspot""","","14","617-577-7511","6 Cambridge Center","Cambridge","MA","2142","42.363719","-71.087931"
"Starbucks","72208","Marriott Boston Cambridge","Licensed","","Wireless Hotspot","","1","617-494-6600","2 Cambridge Center","Cambridge","MA","2142","42.362501","-71.084694"
"Starbucks","857","Cambridge Street","Company Owned","""Lunch, Oven-warmed Food, Reserve Amenity""","""Starbucks Card Mobile, Wireless Hotspot""","","9","617-227-2959","222 Cambridge Street","Boston","MA","2114","42.361026","-71.066486"
"Starbucks","75637","Boston Long Wharf Marriott","Licensed","","Wireless Hotspot","","1","617-227-0800","296 State St","Boston","MA","2109","42.359776","-71.05213"
"Starbucks","862","Fanueil Hall","Company Owned","""Lunch, Oven-warmed Food""","""Starbucks Card Mobile, Wireless Hotspot""","","7","617-227-3821","2-4 Faneuil Hall Market Place","Boston","MA","2109","42.359591","-71.055841"
"Starbucks","883","Steaming Kettle","Company Owned","""Lunch, Oven-warmed Food""","""Starbucks Card Mobile, Wireless Hotspot""","","7","617-227-2284","63-65 Court Street","Boston","MA","2108","42.359465","-71.059376"
"Starbucks","9463","84 State Street","Company Owned","""Lunch, Oven-warmed Food""","""Starbucks Card Mobile, Wireless Hotspot""","","7","617-523-3053","84 State Street","Boston","MA","2109","42.359121","-71.0556"
"Starbucks","864","Charles Street","Company Owned","Lunch","""Starbucks Card Mobile, Wireless Hotspot""","","5","617-227-3812","97 Charles Street","Boston","MA","2114","42.358883","-71.070565"
"Starbucks","875","Devonshire","Company Owned","""Lunch, Oven-warmed Food""","""Starbucks Card Mobile, Wireless Hotspot""","","7","617-720-2220","240 Washington St.","Boston","MA","2108","42.357898","-71.057821"
"Starbucks","7535","27 School Street","Company Owned","""Clover Crafted Small Batch Coffee, Lunch, Oven-warmed Food, Reserve Amenity""","""Starbucks Card Mobile, Wireless Hotspot""","","14","617-227-7731","27 School Street","Boston","MA","2108","42.357726","-71.05922"
"Starbucks","7805","One International Place","Company Owned","""Lunch, Oven-warmed Food""","""Starbucks Card Mobile, Wireless Hotspot""","","7","617-737-4688","1 International Place","Boston","MA","2110","42.35645","-71.051818"
"Starbucks","7268","One Federal Bldg.","Company Owned","Lunch","Starbucks Card Mobile","","2","617-357-6410","1 Federal Street","Boston","MA","2110","42.356101","-71.056999"
"Starbucks","801","Starbucks Boston Common","Company Owned","""Clover Crafted Small Batch Coffee, Lunch, Oven-warmed Food, Reserve Amenity""","""Starbucks Card Mobile, Wireless Hotspot""","","14","617-742-2664","65-66 Beacon","Boston","MA","2108","42.356349","-71.069312"
"Starbucks","7531","12 Winter Street","Company Owned","""Lunch, Oven-warmed Food""","""Starbucks Card Mobile, Wireless Hotspot""","","7","617-542-1313","12 Winter Street","Boston","MA","2108","42.355708","-71.061027"
"Starbucks","7382","Watertown - Mt. Auburn","Company Owned","""Lunch, Oven-warmed Food, Reserve Amenity""","""Starbucks Card Mobile, Wireless Hotspot""","","9","617-926-4644","75 Mt Auburn Street","Watertown","MA","2472","42.366427","-71.181086"
"Starbucks","869","Federal Street","Company Owned","""Lunch, Oven-warmed Food""","""Starbucks Card Mobile, Wireless Hotspot""","","7","617-946-0535","75-101 Federal Street","Boston","MA","2110","42.355049","-71.057263"
"Starbucks","7201","211 Congress","Company Owned","""Clover Crafted Small Batch Coffee, Lunch, Oven-warmed Food, Reserve Amenity""","""Starbucks Card Mobile, Wireless Hotspot""","","14","617-542-4439","211 Congress Street","Boston","MA","2110","42.354673","-71.054837"
"Starbucks","11684","""Cambridge, Memorial Drive""","Company Owned","""Clover Crafted Small Batch Coffee, Lunch, Oven-warmed Food, Reserve Amenity""","Starbucks Card Mobile","","11","617-661-5817","750 Memorial Drive","Cambridge","MA","2139","42.357962","-71.115104"
"Starbucks","10599","125 Summer St.","Company Owned","""Lunch, Oven-warmed Food""","""Starbucks Card Mobile, Wireless Hotspot""","","7","617-737-0250","125 Summer Street","Boston","MA","2110","42.35317","-71.057619"
"Starbucks","7377","One Financial Center-Dewey Sq.","Company Owned","""Lunch, Oven-warmed Food""","""Starbucks Card Mobile, Wireless Hotspot""","","7","617-428-0019","1 Financial Center","Boston","MA","2111","42.352262","-71.056024"
"Starbucks","7564","62 Boylston","Company Owned","""Lunch, Oven-warmed Food""","""Starbucks Card Mobile, Wireless Hotspot""","","7","617-338-0067","62 Boylston Street","Boston","MA","2116","42.352251","-71.064439"
"Starbucks","7686","Brighton/Soldiers Field","Company Owned","""Clover Crafted Small Batch Coffee, Lunch, Oven-warmed Food, Reserve Amenity, Sirena Espresso Machine""","""Starbucks Card Mobile, Wireless Hotspot""","","17","617-782-1325","1660-1670 Soldiers Field Rd","Brighton","MA","2135","42.358906","-71.153598"
"Starbucks","830","443 Boylston Street","Company Owned","""Lunch, Oven-warmed Food, Reserve Amenity""","""Starbucks Card Mobile, Wireless Hotspot""","","9","617-536-7177","443 Boylston Street","Boston","MA","2116","42.351504","-71.072997"
"Starbucks","807","City Place - Boston","Company Owned","""Lunch, Oven-warmed Food""","""Starbucks Card Mobile, Wireless Hotspot""","","7","617-227-7332","143 Stuart Street","Boston","MA","2116","42.351076","-71.065945"
"Starbucks","870","165 Newbury","Company Owned","""Clover Crafted Small Batch Coffee, Lunch, Oven-warmed Food, Reserve Amenity""","""Starbucks Card Mobile, Wireless Hotspot""","","14","617-536-5282","165 Newbury Street","Boston","MA","2116","42.350805","-71.078872"
"Starbucks","7916","Saco","Company Owned","""Lunch, Oven-warmed Food""","""Starbucks Card Mobile, Wireless Hotspot""","Drive-Through","8","207-286-3850","509 Main Street","Saco","ME","4072","43.508877","-70.434748"
"Starbucks","78025","Boston DoubleTree","Licensed","","Wireless Hotspot","","1","617-956-7900","821 Washington Street","Boston","MA","2111","42.34896","-71.064154"
"Starbucks","7544","755 Boylston St","Company Owned","""Clover Crafted Small Batch Coffee, Lunch, Oven-warmed Food, Reserve Amenity, Sirena Espresso Machine""","""Starbucks Card Mobile, Wireless Hotspot""","","17","617-450-0310","755 Boylston Street","Boston","MA","2116","42.349256","-71.080937"
"Starbucks","72111","George Sherman Union Bldg.","Licensed","","Wireless Hotspot","","1","617-353-2991","775 Commonwealth Ave.","Boston","MA","2215","42.351153","-71.108963"
"Starbucks","75265","Manulife Financial","Licensed","","","","0","617-663-3269","601 Congress St","Boston","MA","2210","42.347488","-71.040334"
"Starbucks","822","441 Stuart Street","Company Owned","""Lunch, Oven-warmed Food""","""Starbucks Card Mobile, Wireless Hotspot""","","7","617-859-0703","441 Stuart Street","Boston","MA","2116","42.348457","-71.076293"
"Starbucks","7652","Westin Hotel Copley","Company Owned","""Lunch, Oven-warmed Food""","""Starbucks Card Mobile, Wireless Hotspot""","","7","617-867-0491","""10 Huntington Ave, Ste D""","Boston","MA","2116","42.34844","-71.077587"
"Starbucks","75912","Westin Boston Waterfront","Licensed","","Wireless Hotspot","","1","617-532-4600","425 Summer St","Boston","MA","2210","42.3471","-71.043673"
"Starbucks","10155","Newton Corner","Company Owned","""Lunch, Oven-warmed Food""","""Starbucks Card Mobile, Wireless Hotspot""","","7","617-796-3720","259 Centre Street","Newton","MA","2458","42.359008","-71.185313"
"Starbucks","70015","Boston University-580 Commonwealth","Licensed","","Wireless Hotspot","","1","617-353-5450","580 Commonwealth Ave","Boston","MA","2215","42.349686","-71.10026"
"Starbucks","7702","874 Commonwealth Avenue","Company Owned","""Clover Crafted Small Batch Coffee, Lunch, Oven-warmed Food, Reserve Amenity""","""Starbucks Card Mobile, Wireless Hotspot""","","14","617-734-3691","874 Commonwealth Ave","Brookline","MA","2215","42.35055","-71.114551"
"Starbucks","72107","School of Management","Licensed","","Wireless Hotspot","","1","617-353-1529","595 Commonwealth Ave","Boston","MA","2215","42.349331","-71.100046"
"Starbucks","872","350 Newbury","Company Owned","""Clover Crafted Small Batch Coffee, Lunch, Oven-warmed Food, Reserve Amenity""","""Starbucks Card Mobile, Wireless Hotspot""","","14","617-859-5751","350 Newbury Street","Boston","MA","2115","42.34811","-71.08715"
"Starbucks","75513","Marriott Boston Copley-Mall Entrnc","Licensed","","Wireless Hotspot","","1","617-236-5800","110 Huntington Ave","Boston","MA","2116","42.346988","-71.079236"
"Starbucks","7234","Mass Avenue at Havland","Company Owned","""Clover Crafted Small Batch Coffee, Lunch, Oven-warmed Food, Reserve Amenity""","""Starbucks Card Mobile, Wireless Hotspot""","","14","617-236-4335","147-151 Massachusetts Avenue","Boston","MA","2115","42.346806","-71.08752"
"Starbucks","72163","Boston Sheraton-Main Lobby","Licensed","","Wireless Hotspot","","1","617-378-6210","39 Dalton Street","Boston","MA","2199","42.346573","-71.083844"
"Starbucks","824","Harvard Street","Company Owned","""Lunch, Oven-warmed Food, Reserve Amenity, Sirena Espresso Machine""","""Starbucks Card Mobile, Wireless Hotspot""","","12","617-738-8005","473 Harvard Street","Brookline","MA","2446","42.347042","-71.128464"
"Starbucks","11726","Fenway Triangle Trilogy","Company Owned","""Lunch, Oven-warmed Food""","""Starbucks Card Mobile, Wireless Hotspot""","","7","617-867-6545","142-148 Brookline Avenue","Boston","MA","2215","42.344278","-71.101407"
"Starbucks","7551","Tremont-South End","Company Owned","""Clover Crafted Small Batch Coffee, Lunch, Oven-warmed Food, Reserve Amenity, Sirena Espresso Machine""","""Starbucks Card Mobile, Wireless Hotspot""","","17","617-236-7879","""627 Tremont St, Retail Space #1""","Boston","MA","2118","42.342611","-71.074641"
"Starbucks","7823","Brighton Village","Company Owned","""Lunch, Oven-warmed Food""","""Starbucks Card Mobile, Wireless Hotspot""","","7","617-787-2430","470 Washington St","Brighton","MA","2135","42.348748","-71.159854"
"Starbucks","2767","Huntington Plaza","Company Owned","""Lunch, Oven-warmed Food""","""Starbucks Card Mobile, Wireless Hotspot""","","7","617-536-6501","273 Huntington Ave","Boston","MA","2115","42.342014","-71.086182"
"Starbucks","867","Coolidge Corner","Company Owned","""Lunch, Oven-warmed Food, Reserve Amenity""","""Starbucks Card Mobile, Wireless Hotspot""","","9","617-739-3453","277 Harvard St","Brookline","MA","2446","42.342587","-71.12163"
"Starbucks","75363","Northeastern U - Curry Student Ctr","Licensed","","Wireless Hotspot","","1","617-373-8860","346 Huntington Ave","Boston","MA","2115","42.339585","-71.089353"
"Starbucks","7384","Newtonville","Company Owned","""Lunch, Oven-warmed Food, Reserve Amenity""","""Starbucks Card Mobile, Wireless Hotspot""","","9","617-965-5997","16-18 Austin Street","Newtonville","MA","2460","42.350435","-71.207591"
"Starbucks","7224","Beth Israel","Company Owned","""Lunch, Oven-warmed Food""","Starbucks Card Mobile","","4","617-277-2350","364 Brookline Ave.","Boston","MA","2215","42.338293","-71.106176"
"Starbucks","7804","Childrens' Hospital","Company Owned","""Lunch, Oven-warmed Food""","""Starbucks Card Mobile, Wireless Hotspot""","","7","617-277-5202","283 Longwood Avenue","Boston","MA","2115","42.337712","-71.104718"
"Starbucks","7336","Brookline-Washington Sq.","Company Owned","""Clover Crafted Small Batch Coffee, Lunch, Oven-warmed Food, Reserve Amenity, Sirena Espresso Machine""","""Starbucks Card Mobile, Wireless Hotspot""","","17","617-232-5940","1655 Beacon Street","Brookline","MA","2445","42.338746","-71.13663"
"Starbucks","7481","Brookline Village","Company Owned","""Lunch, Oven-warmed Food, Reserve Amenity""","""Starbucks Card Mobile, Wireless Hotspot""","","9","617-232-5063","15 Harvard Street","Brookline","MA","2445","42.333719","-71.118719"
"Starbucks","16439","Cleveland Circle","Company Owned","""Lunch, Oven-warmed Food""","Wireless Hotspot","","3","617-232-0119","1948 Beacon St","Brighton","MA","2135","42.33608","-71.150371"
"Starbucks","76139","Target Dorchester T-1898","Licensed","","Starbucks Card Mobile","","2","617-602-1921","7 Allstate Rd","Boston","MA","2125","42.32887","-71.062881"
"Starbucks","8741","Newton","Company Owned","""Lunch, Reserve Amenity, Sirena Espresso Machine""","""Starbucks Card Mobile, Wireless Hotspot""","","10","617-964-9690","1269 Centre Street","Newton Centre","MA","2459","42.330258","-71.194991"
"Starbucks","811","Chestnut Hill","Company Owned","""Clover Crafted Small Batch Coffee, Lunch, Oven-warmed Food, Reserve Amenity, Sirena Espresso Machine""","""Starbucks Card Mobile, Wireless Hotspot""","","17","617-738-6939","1154-1160 Boylston Street","Chestnut Hill","MA","2467","42.323624","-71.162437"
"Starbucks","835","Waban","Company Owned","""Clover Crafted Small Batch Coffee, Lunch, Oven-warmed Food, Reserve Amenity, Sirena Espresso Machine""","""Starbucks Card Mobile, Wireless Hotspot""","","17","617-244-0390","474 Woodward Street","Waban","MA","2468","42.32642","-71.230214"
"Starbucks","7797","Newton Lower Falls","Company Owned","""Lunch, Oven-warmed Food, Reserve Amenity""","""Starbucks Card Mobile, Wireless Hotspot""","","9","617-630-9870","2322 Washington Street","Newton","MA","2462","42.325456","-71.256504"
"Starbucks","76403","Target Leominster T-1965","Licensed","","Starbucks Card Mobile","","2","978-534-2914","86 Orchard Hill Park Dr","Leominster","MA","1453","42.527313","-71.713782"
"Starbucks","880","South Brookline","Company Owned","""Clover Crafted Small Batch Coffee, Lunch, Reserve Amenity""","""Starbucks Card Mobile, Wireless Hotspot""","","12","617-325-6261","183 Grove St","South Brookline","MA","2467","42.303253","-71.152063"
"Starbucks","7270","Newton Upper Falls","Company Owned","""Lunch, Oven-warmed Food, Reserve Amenity, Sirena Espresso Machine""","""Starbucks Card Mobile, Wireless Hotspot""","","12","617-332-8839","244 Needham Street","Newton","MA","2464","42.309391","-71.213785"
"Starbucks","8956","""Leominster, Commercial Road""","Company Owned","""Lunch, Oven-warmed Food, Reserve Amenity""","""Starbucks Card Mobile, Wireless Hotspot""","Drive-Through","10","978-840-1670","14 Commercial Rd","Leominster","MA","1453","42.53507","-71.741658"
"Starbucks","7301","Sudbury","Company Owned","""Lunch, Oven-warmed Food, Reserve Amenity, Sirena Espresso Machine""","""Starbucks Card Mobile, Wireless Hotspot""","","12","978-579-9977","513 Boston Post Road","Sudbury","MA","1776","42.359303","-71.430362"
"Starbucks","7808","West Roxbury- Roche Bros.","Company Owned","""Lunch, Oven-warmed Food, Reserve Amenity""","""Starbucks Card Mobile, Wireless Hotspot""","","9","617-325-4717","1810 Centre Street","West Roxbury","MA","2132","42.287204","-71.152575"
"Starbucks","7227","Needham","Company Owned","""Clover Crafted Small Batch Coffee, Lunch, Oven-warmed Food, Reserve Amenity""","""Starbucks Card Mobile, Wireless Hotspot""","","14","781-444-6234","910 Highland Ave.","Needham","MA","2494","42.293244","-71.235098"
"Starbucks","7314","Wayland","Company Owned","""Lunch, Oven-warmed Food, Reserve Amenity, Sirena Espresso Machine""","""Starbucks Card Mobile, Wireless Hotspot""","","12","508-655-1109","44 Main Street","Wayland","MA","1778","42.31709","-71.364036"
"Starbucks","10962","""Wellesley, Linden Square""","Company Owned","""Lunch, Oven-warmed Food, Reserve Amenity""","""Starbucks Card Mobile, Wireless Hotspot""","","9","781-235-2390","101 Linden Street","Wellesley","MA","2482","42.297805","-71.295437"
"Starbucks","868","Wellesley","Company Owned","""Clover Crafted Small Batch Coffee, Lunch, Oven-warmed Food, Reserve Amenity""","""Starbucks Card Mobile, Wireless Hotspot""","","14","781-237-5282","68A Central Street","Wellesley","MA","2482","42.29598","-71.296342"
"Starbucks","16092","Natick Route 9","Company Owned","""Lunch, Oven-warmed Food""","Wireless Hotspot","","3","508-655-3423","333 Worcester St","Natick","MA","1760","42.302288","-71.338926"
"Starbucks","7565","East Milton Square(552 Adams St)","Company Owned","""Clover Crafted Small Batch Coffee, Lunch, Oven-warmed Food, Reserve Amenity, Sirena Espresso Machine""","""Starbucks Card Mobile, Wireless Hotspot""","","17","617-296-0790","552 Adams Street","Milton","MA","2186","42.25799","-71.039547"
"Starbucks","7992","""Quincy, Monroe Place""","Company Owned","""Lunch, Oven-warmed Food""","""Starbucks Card Mobile, Wireless Hotspot""","","7","617-770-4953","1245 Hancock Street","Quincy","MA","2169","42.252762","-71.004839"
"Starbucks","15209","Target Framingham T-1308","Licensed","","Wireless Hotspot","","1","508-628-3136","400 Cochituate Rd","Framingham","MA","1701","42.305604","-71.397713"
"Starbucks","7218","Framingham (B&N)","Company Owned","""Lunch, Oven-warmed Food, Reserve Amenity, Sirena Espresso Machine""","""Starbucks Card Mobile, Wireless Hotspot""","","12","508-820-1204","1 Worcester Road","Framingham","MA","1701","42.301904","-71.395998"
"Starbucks","874","Natick","Company Owned","""Lunch, Oven-warmed Food, Reserve Amenity, Sirena Espresso Machine""","""Starbucks Card Mobile, Wireless Hotspot""","","12","508-650-2081","1346 Worcester Road","Natick","MA","1760","42.298075","-71.38708"
"Starbucks","9523","""Dedham Mall, Pad""","Company Owned","""Lunch, Oven-warmed Food, Reserve Amenity""","""Starbucks Card Mobile, Wireless Hotspot""","Drive-Through","10","781-751-9036","300 Providence Highway","Dedham","MA","2026","42.253684","-71.170488"
"Starbucks","7328","Hingham","Company Owned","""Lunch, Oven-warmed Food, Reserve Amenity""","""Starbucks Card Mobile, Wireless Hotspot""","","9","781-749-5474","184 Lincoln Street","Hingham","MA","2043","42.248889","-70.903786"
"Starbucks","70090","Roche Bros - Quincy #513","Licensed","","Wireless Hotspot","","1","617-471-0500","101 Falls Boulevard","Quincy","MA","2169","42.237861","-70.984275"
"Starbucks","7399","Wild Harvest/Framingham","Company Owned","""Lunch, Oven-warmed Food, Reserve Amenity, Sirena Espresso Machine""","""Starbucks Card Mobile, Wireless Hotspot""","","12","508-879-9185","25 Prospect St","Framingham","MA","1701","42.298732","-71.422425"
"Starbucks","10167","""Riverhead, Tanger II""","Company Owned","""Lunch, Oven-warmed Food""","""iTunes WiFi Music Store, Starbucks Card Mobile, Wireless Hotspot""","","12","631-727-7015","""1770 West Main Street, Suite 1400""","Riverhead","NY","11901","40.91709","-72.709457"
"Starbucks","13718","Mattituck","Company Owned","""Lunch, Oven-warmed Food""","""Starbucks Card Mobile, Wireless Hotspot""","","7","631-298-4563","10095 Main Road","Mattituck","NY","11952","40.985873","-72.539072"
"Starbucks","7718","Hampton Bays","Company Owned","""Clover Crafted Small Batch Coffee, Lunch, Oven-warmed Food, Reserve Amenity""","""iTunes WiFi Music Store, Starbucks Card Mobile, Wireless Hotspot""","","19","631-728-7530","24 Montauk Highway","Hampton Bays","NY","11946","40.878641","-72.521415"
"Starbucks","7861","Manorville","Company Owned","Lunch","""Starbucks Card Mobile, Wireless Hotspot""","","5","631-395-8097","485 CR-111","Manorville","NY","11949","40.852492","-72.789541"
"Starbucks","7406","Bridgehampton Village","Company Owned","""Clover Crafted Small Batch Coffee, Lunch, Oven-warmed Food, Reserve Amenity, Sirena Espresso Machine""","""iTunes WiFi Music Store, Starbucks Card Mobile, Wireless Hotspot""","","22","631-537-5851","2488 Montauk Hwy","Bridgehampton","NY","11932","40.9376","-72.30177"
"Starbucks","7844","Miller Place","Company Owned","""Lunch, Oven-warmed Food, Reserve Amenity, Sirena Espresso Machine""","""iTunes WiFi Music Store, Starbucks Card Mobile, Wireless Hotspot""","","17","631-331-0405","""385 Route 25 A, 14""","Miller Place","NY","11764","40.941748","-72.987096"
"Starbucks","79377","Stop & Shop-Medford #583","Licensed","","","","0","631-345-0250","700-60 Patchogue Yaphank Rd","Medford","NY","11763","40.805119","-72.95693"
"Starbucks","76412","Target Medford T-1948","Licensed","","Starbucks Card Mobile","","2","631-286-0287","2975 Horseblock Rd","Medford","NY","11763","40.824912","-72.988943"
"Starbucks","9922","""Medford, Route 112""","Company Owned","""Lunch, Oven-warmed Food""","""iTunes WiFi Music Store, Starbucks Card Mobile, Wireless Hotspot""","","12","631-207-1480","2717 Route 112","Medford","NY","11763","40.822287","-72.996881"
"Starbucks","7528","Selden","Company Owned","""Lunch, Oven-warmed Food, Reserve Amenity, Sirena Espresso Machine""","""iTunes WiFi Music Store, Starbucks Card Mobile, Wireless Hotspot""","Drive-Through","18","631-696-4762","1251 Middle Country Road","Selden","NY","11784","40.863019","-73.055053"
"Starbucks","7210","Port Jefferson","Company Owned","""Clover Crafted Small Batch Coffee, Lunch, Oven-warmed Food, Reserve Amenity""","""iTunes WiFi Music Store, Starbucks Card Mobile, Wireless Hotspot""","","19","631-476-3791","""201 Main Street, Unit C""","Port Jefferson","NY","11777","40.945765","-73.068309"
"Starbucks","11974","""East Setauket, Nesconset HIghway""","Company Owned","""Lunch, Oven-warmed Food""","Starbucks Card Mobile","Drive-Through","5","631-642-0263","4020 Nesconset Highway","East Setauket","NY","11733","40.904305","-73.073763"
"Starbucks","13631","""Patchogue, Waverly Plaza""","Company Owned","""Lunch, Oven-warmed Food, Reserve Amenity""","Starbucks Card Mobile","","6","631-207-2102","371 North Service Rd","Patchogue","NY","11772","40.777284","-73.03153"
"Starbucks","7614","Centereach","Company Owned","""Lunch, Oven-warmed Food""","""iTunes WiFi Music Store, Starbucks Card Mobile, Wireless Hotspot""","","12","631-585-8462","1942 Middle Country Road","Centereach","NY","11720","40.857481786365","-73.088909"
"Starbucks","7884","East Hampton Village","Company Owned","""Lunch, Oven-warmed Food, Reserve Amenity""","""iTunes WiFi Music Store, Starbucks Card Mobile, Wireless Hotspot""","","14","631-329-8645","39 Main Street","East Hampton","NY","11937","40.963409","-72.186252"
"Starbucks","15617","Target South Setauket T-1191","Licensed","","","","0","631-580-5356","255 Pond Path","Centereach","NY","11720","40.884101","-73.102418"
"Starbucks","10284","Bayport","Company Owned","""Lunch, Oven-warmed Food""","""iTunes WiFi Music Store, Starbucks Card Mobile, Wireless Hotspot""","","12","631-472-0151","911 Montauk Highway","Bayport","NY","11705","40.748537","-73.047965"
"Starbucks","7432","East Setauket","Company Owned","""Lunch, Oven-warmed Food, Reserve Amenity""","""iTunes WiFi Music Store, Starbucks Card Mobile, Wireless Hotspot""","","14","631-941-0446","246 Route 25-A","Setauket","NY","11733","40.94058","-73.10832"
"Starbucks","7701","Madison - CT","Company Owned","""Clover Crafted Small Batch Coffee, Lunch, Oven-warmed Food, Sirena Espresso Machine""","""Starbucks Card Mobile, Wireless Hotspot""","","15","203-245-1554","613 Boston Post Road","Madison","CT","6443","41.279851","-72.598418"
"Starbucks","7635","Stony Brook (347)","Company Owned","""Lunch, Oven-warmed Food, Reserve Amenity""","""iTunes WiFi Music Store, Starbucks Card Mobile, Wireless Hotspot""","","14","631-689-1762","1320 Stony Brook Road","Stony Brook","NY","11790","40.877278","-73.118521"
"Starbucks","75419","Stony Brook University-Long Island-","Licensed","""Lunch, Oven-warmed Food""","Wireless Hotspot","","3","631-632-6529","Student Activities Center","Stony Brook","NY","11794","40.914777","-73.123755"
"Starbucks","75901","ISP - Islip Gate 4 SW Terminal","Licensed","Lunch","Wireless Hotspot","","1","631-285-7684","100 Arrival Ave","Ronkonkoma","NY","11779","40.789964717365","-73.095280526041"
"Starbucks","10046","Smith Haven Mall","Company Owned","""Lunch, Oven-warmed Food""","""Starbucks Card Mobile, Wireless Hotspot""","","7","631-863-2061","528 Smith Haven Mall","Lake Grove","NY","11755","40.866498152502","-73.12914"
"Starbucks","7485","Branford","Company Owned","""Lunch, Oven-warmed Food, Reserve Amenity, Sirena Espresso Machine""","""Starbucks Card Mobile, Wireless Hotspot""","Drive-Through","13","203-483-1260","6 N Main St","Branford","CT","6405","41.277428","-72.82753"
"Starbucks","75705","Travel Ctr-New Haven","Licensed","","Wireless Hotspot","","1","203-481-0301","3 E Industrial Rd","Branford","CT","6405","41.297025","-72.763271"
"Starbucks","7447","Sayville","Company Owned","""Lunch, Oven-warmed Food""","""iTunes WiFi Music Store, Starbucks Card Mobile, Wireless Hotspot""","","12","631-244-8983","59 Main Street","Sayville","NY","11782","40.735674","-73.083368"
"Starbucks","70319","SUNY Stony Brook University Hospita","Licensed","""Lunch, Oven-warmed Food""","Wireless Hotspot","","3","631-444-7356","250 Stony Brook Union","Stony Brook","NY","11794","40.9144","-73.1479"
"Starbucks","14795","""Nesconset, Smithtown Blvd.""","Company Owned","""Lunch, Oven-warmed Food""","""Starbucks Card Mobile, Wireless Hotspot""","Drive-Through","8","631-979-3093","465 Smithtown Blvd.","Nesconset","NY","11767","40.83332","-73.146733"
"Starbucks","7503","Bohemia","Company Owned","""Lunch, Oven-warmed Food, Reserve Amenity, Sirena Espresso Machine""","""iTunes WiFi Music Store, Starbucks Card Mobile, Wireless Hotspot""","Drive-Through","18","631-218-3179","4577 Sunrise Highway","Oakdale","NY","11716","40.754806","-73.116122"
"Starbucks","7986","""Old Saybrook, Main Street""","Company Owned","""Lunch, Oven-warmed Food""","""Starbucks Card Mobile, Wireless Hotspot""","","7","860-388-3133","15 Main St","Old Saybrook","CT","6475","41.296462","-72.377211"
"Starbucks","73804","Stop & Shop-West Haven #696","Licensed","","","","0","203-931-8843","460 Elm St","West Haven","CT","6516","41.271873","-72.956854"
"Starbucks","7411","Smithtown","Company Owned","""Lunch, Oven-warmed Food""","""iTunes WiFi Music Store, Starbucks Card Mobile, Wireless Hotspot""","","12","631-265-1960","1 Miller Place","Smithtown","NY","11787","40.855621","-73.191432"
"Starbucks","14745","""West Haven, Saw Mill Road""","Company Owned","""Lunch, Oven-warmed Food""","Starbucks Card Mobile","","4","203-479-4022","354 Saw Mill Road","West Haven","CT","6516","41.271304","-72.972385"
"Starbucks","76547","Target Milford T-2045","Licensed","","Starbucks Card Mobile","","2","203-859-3694","1911 Boston Post Road","Milford","CT","6460","41.235084","-73.037422"
"Starbucks","10353","Post Mall Pad","Company Owned","""Lunch, Oven-warmed Food""","""Starbucks Card Mobile, Wireless Hotspot""","","7","203-878-1865","1319 Boston Post Rd.","Milford","CT","6460","41.238522","-73.035378"
"Starbucks","7388","Orange","Company Owned","""Lunch, Oven-warmed Food""","""Starbucks Card Mobile, Wireless Hotspot""","","7","203-795-4612","538 Boston Post Rd.","Orange","CT","6477","41.257964889222","-73.012505796698"
"Starbucks","11903","""New Haven, Chapel Square""","Company Owned","""Lunch, Oven-warmed Food""","""Starbucks Card Mobile, Wireless Hotspot""","","7","203-787-9108","896 Chapel Street","New Haven","CT","6510","41.30604","-72.926124"
"Starbucks","7461","New Haven / Chapel Street","Company Owned","""Clover Crafted Small Batch Coffee, Lunch, Oven-warmed Food, Reserve Amenity""","""Starbucks Card Mobile, Wireless Hotspot""","","14","203-624-3361","1068-1070 Chapel St","New Haven","CT","6510","41.307781","-72.930264"
"Starbucks","76307","Target Orange T-1955","Licensed","","Starbucks Card Mobile","","2","203-859-3694","25 Boston Post Rd","Orange","CT","6477","41.280062","-72.987554"
"Starbucks","76582","Target Central Islip T-2102","Licensed","","Starbucks Card Mobile","","2","631-297-2011","160 N Research Pl","Central Islip","NY","11722","40.772734","-73.20139"
"Starbucks","7813","Hauppauge - Route 111","Company Owned","""Lunch, Oven-warmed Food""","""iTunes WiFi Music Store, Starbucks Card Mobile, Wireless Hotspot""","Drive-Through","13","631-724-0928","513 Hauppauge Rd - Rte 111","Hauppauge","NY","11788","40.815113","-73.218243"
"Starbucks","76268","Target North Haven T-1916","Licensed","","Starbucks Card Mobile","","2","203-859-3490","200 Universal Dr N","North Haven","CT","6473","41.353943","-72.871383"
"Starbucks","9265","""Stratford, Barnum Avenue""","Company Owned","""Lunch, Oven-warmed Food, Reserve Amenity""","""Starbucks Card Mobile, Wireless Hotspot""","","9","203-380-8111","1106 Barnum Ave","Stratford","CT","6614","41.198997","-73.133723"
"Starbucks","7651","Islip Village","Company Owned","""Clover Crafted Small Batch Coffee, Lunch, Oven-warmed Food""","""iTunes WiFi Music Store, Starbucks Card Mobile, Wireless Hotspot""","","17","631-581-4239","455 Main St","Islip","NY","11751","40.729112","-73.21488"
"Starbucks","11811","""Jericho Tpke, Commack""","Company Owned","""Lunch, Oven-warmed Food""","""Starbucks Card Mobile, Wireless Hotspot""","Drive-Through","8","631-543-0140","2055A Jericho Tpke","Commack","NY","11725","40.845046","-73.274902"
"Starbucks","8646","Woodbridge-Merritt Parkway","Company Owned","""Lunch, Oven-warmed Food""","""Starbucks Card Mobile, Wireless Hotspot""","Drive-Through","8","203-392-0283","1660 Litchfield Turnpike","Woodbridge","CT","6525","41.340186","-72.97777"
"Starbucks","2747","Hamden","Company Owned","""Lunch, Oven-warmed Food""","""Starbucks Card Mobile, Wireless Hotspot""","","7","203-230-0868","2100 Dixwell Avenue","Hamden","CT","6514","41.370529","-72.919006"
"Starbucks","76306","Target Trumbull T-1956","Licensed","","Starbucks Card Mobile","","2","203-455-0102","120 Hawley Ln","Trumbull","CT","6611","41.233475","-73.151583"
"Starbucks","15620","Target Commack T-1108","Licensed","","","","0","631-462-8969","98 Veterans Memorial Hwy","Commack","NY","11725","40.839025","-73.28691"
"Starbucks","10948","""Derby, New Haven Ave""","Company Owned","""Lunch, Oven-warmed Food""","""Starbucks Card Mobile, Wireless Hotspot""","","7","203-736-9514","552 New Haven Avenue","Derby","CT","6418","41.312535","-73.055818"
"Starbucks","7752","North Haven","Company Owned","""Lunch, Oven-warmed Food""","""Starbucks Card Mobile, Wireless Hotspot""","","7","203-985-8385","166 Washington Avenue","North Haven","CT","6473","41.397931","-72.852245"
"Starbucks","2783","""Commack, Crooked Hill""","Company Owned","""Lunch, Oven-warmed Food""","""Starbucks Card Mobile, Wireless Hotspot""","Drive-Through","8","631-858-0167","125 Crooked Hill Road","Commack","NY","11725","40.806366","-73.288651"
"Starbucks","9641","""Shelton, Crown Point Center""","Company Owned","""Lunch, Oven-warmed Food""","""Starbucks Card Mobile, Wireless Hotspot""","","7","203-929-4351","504 Bridgeport Avenue","Shelton","CT","6484","41.287854","-73.112944"
"Starbucks","72572","Stop & Shop-Fairfield # 673","Licensed","","","","0","203-333-0004","760 Villa Avenue","Fairfield","CT","6825","41.175681","-73.22893"
"Starbucks","16976","Follett-Fairfield University","Licensed","","","","0","203-255-7910","1499 Post Rd","Fairfield","CT","6824","41.141087","-73.257966"
"Starbucks","10264","""Fairfield, Boston Post Rd""","Company Owned","""Lunch, Oven-warmed Food""","""Starbucks Card Mobile, Wireless Hotspot""","","7","203-254-2142","1740 Boston Post Rd","Fairfield","CT","6824","41.141437","-73.262251"
"Starbucks","10329","""E. Northport, Larkfield Rd""","Company Owned","""Lunch, Oven-warmed Food""","""Starbucks Card Mobile, Wireless Hotspot""","Drive-Through","8","631-266-1879","506 Larkfield Rd","East Northport","NY","11731","40.863832","-73.321131"
"Starbucks","15413","Target Bay Shore T-1148","Licensed","","","","0","631-969-8958","838 Sunrise Hwy","Bay Shore","NY","11706","40.729101","-73.278881"
"Starbucks","10283","Northport Village","Company Owned","""Lunch, Oven-warmed Food, Reserve Amenity""","""iTunes WiFi Music Store, Starbucks Card Mobile, Wireless Hotspot""","","14","631-754-0840","832A Fort Salonga Road","Northport","NY","11768","40.898545","-73.330773"
"Starbucks","10045","""East Northport, Rte. 25""","Company Owned","""Lunch, Oven-warmed Food, Sirena Espresso Machine""","""iTunes WiFi Music Store, Starbucks Card Mobile, Wireless Hotspot""","Drive-Through","16","631-499-0258","3011 Jericho Tpke.","East Northport","NY","11731","40.839351","-73.323878"
"Starbucks","14368","""Tanger Outlets, Deer Park""","Company Owned","""Lunch, Oven-warmed Food""","Starbucks Card Mobile","","4","631-242-0802","529 The Arches Circle","Deer Park","NY","11729","40.76462","-73.304116"
"Starbucks","7252","Trumbull","Company Owned","""Lunch, Oven-warmed Food, Reserve Amenity""","""Starbucks Card Mobile, Wireless Hotspot""","","9","203-452-0108","938 White Plains Road","Trumbull","CT","6611","41.245464","-73.196984"
"Starbucks","7668","Fairfield / Black Rock Tpk.","Company Owned","""Lunch, Oven-warmed Food, Sirena Espresso Machine""","""Starbucks Card Mobile, Wireless Hotspot""","","10","203-362-0347","2171 Black Rock Turnpike","Fairfield","CT","6825","41.181545","-73.252475"
"Starbucks","76780","Target Ansonia T-2249","Licensed","","Starbucks Card Mobile","","2","203-278-5055","20 W Main St","Ansonia","CT","6401","41.342144","-73.07957"
"Starbucks","9292","East Lyme","Company Owned","""Lunch, Oven-warmed Food""","""Starbucks Card Mobile, Wireless Hotspot""","Drive-Through","8","860-739-7658","267 Flanders Road","East Lyme","CT","6333","41.3687","-72.2297"
"Starbucks","76967","Target Trumbull West T-2361","Licensed","","Starbucks Card Mobile","","2","203-873-7827","5065 Main St","Trumbull","CT","6611","41.230714","-73.227025"
"Starbucks","4196","Stop & Shop-Westport #653","Licensed","","","","0","203-254-8484","1790 Post Rd E","Westport","CT","6880","41.13819","-73.30148"
"Starbucks","7455","""Deer Park, Rt. 231""","Company Owned","""Lunch, Oven-warmed Food, Sirena Espresso Machine""","""iTunes WiFi Music Store, Starbucks Card Mobile, Wireless Hotspot""","","15","631-243-3881","1932 Deer Park Avenue","Deer Park","NY","11729","40.763115","-73.330076"
"Starbucks","7505","Post Road #925/Westport II","Company Owned","""Clover Crafted Small Batch Coffee, Lunch, Oven-warmed Food, Reserve Amenity, Sirena Espresso Machine""","""Starbucks Card Mobile, Wireless Hotspot""","","17","203-226-8017","925 Post Road East","Westport","CT","6880","41.138443","-73.333057"
"Starbucks","9846","West Babylon","Company Owned","""Lunch, Oven-warmed Food""","Starbucks Card Mobile","Drive-Through","5","631-669-3451","519 Montauk Highway","West Babylon","NY","11704","40.688312","-73.340442"
"Starbucks","13783","""Seymour, Rt. 67""","Company Owned","""Lunch, Oven-warmed Food""","Starbucks Card Mobile","Drive-Through","5","203-881-8130","253 West St.","Seymour","CT","6483","41.398532","-73.088766"
"Starbucks","804","West Port","Company Owned","""Lunch, Oven-warmed Food, Reserve Amenity""","""Starbucks Card Mobile, Wireless Hotspot""","","9","203-454-3205","1 Parker Harding Plaza","Westport","CT","6880","41.141348","-73.362035"
"Starbucks","7722","Walt Whitman Mall","Company Owned","Lunch","Starbucks Card Mobile","","2","631-423-1392","160 Walt Whitman Road","Huntington Station","NY","11746","40.823249810772","-73.412254"
"Starbucks","10020","""Meriden, S. Broad St.""","Company Owned","""Lunch, Oven-warmed Food""","""Starbucks Card Mobile, Wireless Hotspot""","Drive-Through","8","203-235-0268","500 South Broad Street","Meriden","CT","6450","41.50887","-72.808914"
"Starbucks","855","Huntington","Company Owned","""Clover Crafted Small Batch Coffee, Lunch, Oven-warmed Food, Reserve Amenity""","""iTunes WiFi Music Store, Starbucks Card Mobile, Wireless Hotspot""","","19","631-421-3459","1 Wall Street","Huntington","NY","11743","40.871268","-73.427555"
"Starbucks","7576","Melville","Company Owned","""Lunch, Oven-warmed Food""","""iTunes WiFi Music Store, Starbucks Card Mobile, Wireless Hotspot""","","12","631-692-0392","64 Broad Hollow Road","Melville","NY","11747","40.790731","-73.415927"
"Starbucks","7864","""Norwalk, Dansk Plaza""","Company Owned","""Lunch, Oven-warmed Food, Sirena Espresso Machine""","""Starbucks Card Mobile, Wireless Hotspot""","","10","203-840-1052","56 Westport Ave","Norwalk","CT","6851","41.121625","-73.404327"
"Starbucks","11782","""Groton, Rte. 1""","Company Owned","""Lunch, Oven-warmed Food""","""Starbucks Card Mobile, Wireless Hotspot""","Drive-Through","8","860-449-9006","985 A Poquonnock Rd.","Groton","CT","6340","41.346051","-72.048635"
"Starbucks","9601","""Monroe, Rt 25""","Company Owned","""Lunch, Oven-warmed Food""","""Starbucks Card Mobile, Wireless Hotspot""","Drive-Through","8","203-268-1751","""525 Main Street, Ste #1""","Monroe","CT","6468","41.32809","-73.266896"
"Starbucks","7397","Farmingdale","Company Owned","""Lunch, Oven-warmed Food""","""Starbucks Card Mobile, Wireless Hotspot""","Drive-Through","8","631-454-4550","10 Michael Ave","Farmingdale","NY","11735","40.727235","-73.424472"
"Starbucks","79470","Stop & Shop-Amityville #550","Licensed","","","","0","631-391-0304","351 Merrick Rd","Amityville","NY","11701","40.667336","-73.406254"
"Starbucks","7220","Woodbury Commons - closed","Company Owned","""Clover Crafted Small Batch Coffee, Lunch, Oven-warmed Food, Reserve Amenity""","""iTunes WiFi Music Store, Starbucks Card Mobile, Wireless Hotspot""","","19","516-921-2878","8285 Jericho Turnpike","Woodbury","NY","11797","40.816438","-73.465933"
"Starbucks","9493","""Norwalk, Rte 7""","Company Owned","""Lunch, Oven-warmed Food""","""Starbucks Card Mobile, Wireless Hotspot""","Drive-Through","8","203-840-1976","555 Main Street","Norwalk","CT","6851","41.156313","-73.423316"
"Starbucks","72248","Mystic Marriott Hotel & Spa","Licensed","","","","0","860-446-2600","625 North Road","Groton","CT","6340","41.364913","-72.025234"
"Starbucks","7220","Woodbury  Village","Company Owned","""Clover Crafted Small Batch Coffee, Lunch, Oven-warmed Food, Reserve Amenity""","""iTunes WiFi Music Store, Wireless Hotspot""","","15","516-921-2878","7963 Jericho Turnpike","Woodbury","NY","11797","40.814458","-73.476803"
"Starbucks","7230","Darien","Company Owned","""Clover Crafted Small Batch Coffee, Lunch, Oven-warmed Food, Sirena Espresso Machine""","""Starbucks Card Mobile, Wireless Hotspot""","","15","203-655-6943","815 Post Road","Darien","CT","6820","41.078205","-73.468873"
"Starbucks","14217","Sunrise Mall","Company Owned","Lunch","""Starbucks Card Mobile, Wireless Hotspot""","","5","516-798-0636","9165 Sunrise Mall","Massapequa","NY","11758","40.682743","-73.434839"
"Starbucks","7580","Wilton(River Road)","Company Owned","""Lunch, Oven-warmed Food""","""Starbucks Card Mobile, Wireless Hotspot""","","7","203-761-0408","""21 River Road, Ste 100""","Wilton","CT","6897","41.190546","-73.430529"
"Starbucks","7728","Syosset- South Oyster Bay","Company Owned","""Lunch, Oven-warmed Food, Sirena Espresso Machine""","""iTunes WiFi Music Store, Starbucks Card Mobile, Wireless Hotspot""","","15","516-364-0357","""390 Jericho Turnpike, Unit B""","Syosset","NY","11791","40.809905","-73.501408"
"Starbucks","842","Plainview Centre","Company Owned","""Lunch, Oven-warmed Food, Reserve Amenity""","""iTunes WiFi Music Store, Starbucks Card Mobile, Wireless Hotspot""","","14","516-932-5071","399 South Oyster Bay Road","Plainview","NY","11803","40.784643","-73.502059"
"Starbucks","2782","""Bethpage, Stewart Avenue""","Company Owned","""Lunch, Oven-warmed Food""","""iTunes WiFi Music Store, Starbucks Card Mobile, Wireless Hotspot""","Drive-Through","13","516-520-0698","205 Stewart Ave","Bethpage","NY","11714","40.72635","-73.482822"
"Starbucks","15619","Target Levittown T-1264","Licensed","","","","0","516-731-9392","3850 Hempstead Tpke","Levittown","NY","11756","40.725504","-73.495984"
"Starbucks","7654","Mystic Outlet","Company Owned","""Lunch, Oven-warmed Food, Reserve Amenity, Sirena Espresso Machine""","""Starbucks Card Mobile, Wireless Hotspot""","","12","860-536-9454","12 Coogan Blvd.","Mystic","CT","6355","41.372133","-71.955191"
"Starbucks","7307","Massapequa Village Square","Company Owned","""Lunch, Oven-warmed Food, Reserve Amenity""","""iTunes WiFi Music Store, Starbucks Card Mobile, Wireless Hotspot""","","14","516-797-8691","4301 Merrick Road","Massapequa","NY","11758","40.666983","-73.474865"
"Starbucks","877","New Canaan","Company Owned","""Lunch, Oven-warmed Food, Reserve Amenity""","""Starbucks Card Mobile, Wireless Hotspot""","","9","203-972-8110","88 Park Street","New Canaan","CT","6840","41.14643","-73.495075"
"Starbucks","73725","Stop & Shop-Montville #678","Licensed","","","","0","860-848-0210","2020 Norwich-New London Turnpike","Montville","CT","6353","41.481022","-72.103082"
"Starbucks","2962","Colchester","Company Owned","""Lunch, Oven-warmed Food""","""Starbucks Card Mobile, Wireless Hotspot""","","7","860-537-8433","27 Broadway","Colchester","CT","6415","41.575887","-72.333207"
"Starbucks","11172","Stamford Town Center","Company Owned","""Lunch, Oven-warmed Food""","""Starbucks Card Mobile, Wireless Hotspot""","","7","203-323-1152","""100 Greyrock Place, 104""","Stamford","CT","6901","41.052809","-73.536219"
"Starbucks","7235","Jericho","Company Owned","""Clover Crafted Small Batch Coffee, Lunch, Oven-warmed Food, Reserve Amenity""","""iTunes WiFi Music Store, Starbucks Card Mobile, Wireless Hotspot""","","19","516-433-4611","475 North Broadway","Jericho","NY","11753","40.783681456044","-73.532697879095"
"Starbucks","14784","""Hicksville, Old Country Rd & Newbri""","Company Owned","""Lunch, Oven-warmed Food""","Starbucks Card Mobile","","4","516-822-2035","180 W Old Country Road","Hicksville","NY","11801","40.761979758485","-73.527407061452"
"Starbucks","9308","Levittown - Hempstead Tpke.","Company Owned","""Lunch, Oven-warmed Food""","""iTunes WiFi Music Store, Starbucks Card Mobile, Wireless Hotspot""","","12","516-520-0973","3240 Hempstead Tpke","Levittown","NY","11756","40.725554","-73.516363"
"Starbucks","7477","Stamford/Library","Company Owned","Lunch","""Starbucks Card Mobile, Wireless Hotspot""","","5","203-975-9696","96 Broad Street","Stamford","CT","6901","41.055544","-73.539338"
"Starbucks","76284","Target Hicksville T-1855","Licensed","","Starbucks Card Mobile","","2","516-806-2096","358 Broadway Mall","Hicksville","NY","11801","40.772063","-73.532964"
"Starbucks","76269","Target Stamford T-1544","Licensed","","Starbucks Card Mobile","","2","203-388-0006","21 Broad St","Stamford","CT","6901","41.055478","-73.541372"
"Starbucks","16303","Wantagh","Company Owned","""Lunch, Oven-warmed Food""","Wireless Hotspot","Drive-Through","4","516-781-1538","1143 Wantagh Avenue","Wantagh","NY","11793","40.69483","-73.507454"
"Starbucks","7367","Southbury","Company Owned","""Lunch, Oven-warmed Food, Sirena Espresso Machine""","""Starbucks Card Mobile, Wireless Hotspot""","","10","203-267-7548","775 South Main Street","Southbury","CT","6488","41.461163","-73.232963"
"Starbucks","7482","Newtown CT","Company Owned","""Lunch, Oven-warmed Food, Reserve Amenity, Sirena Espresso Machine""","""Starbucks Card Mobile, Wireless Hotspot""","","12","203-364-1423","34 Church Hill Road","Newtown","CT","6470","41.414897","-73.299644"
"Starbucks","7366","Stamford-Ridgeway","Company Owned","""Lunch, Oven-warmed Food""","""Starbucks Card Mobile, Wireless Hotspot""","","7","203-325-4607","2139 Summer Street","Stamford","CT","6905","41.066825","-73.545279"
"Starbucks","75540","Mohegan Sun","Licensed","","","","0","860-204-7378","One Mohegan Sun Blvd.","Uncasville","CT","6382","41.492586092458","-72.091210765093"
"Starbucks","14466","West Stamford Plaza","Company Owned","""Lunch, Oven-warmed Food""","""Starbucks Card Mobile, Wireless Hotspot""","Drive-Through","8","203-708-9834","288 West Avenue","Stamford","CT","6902","41.043945","-73.55832"
"Starbucks","805","Stamford","Company Owned","""Lunch, Oven-warmed Food, Sirena Espresso Machine""","""Starbucks Card Mobile, Wireless Hotspot""","","10","203-461-9049","1055 High Ridge Road","Stamford","CT","6905","41.108245","-73.547013"
"Starbucks","7509","Westbury II","Company Owned","""Lunch, Oven-warmed Food""","""iTunes WiFi Music Store, Starbucks Card Mobile, Wireless Hotspot""","","12","516-338-8711","1149 Old Country Road","Westbury","NY","11590","40.756398","-73.552657"
"Starbucks","76990","Target Southington T-2434","Licensed","","Starbucks Card Mobile","","2","860-406-6754","600 Executive Blvd","Southington","CT","6489","41.611017","-72.901865"
"Starbucks","815","Thruway / Riverside","Company Owned","""Lunch, Reserve Amenity, Sirena Espresso Machine""","""Starbucks Card Mobile, Wireless Hotspot""","","10","203-698-1306","1253 East Putnam Ave","Riverside","CT","6878","41.042514584278","-73.577424192049"
"Starbucks","76705","Target Waterbury T-2156","Licensed","","Starbucks Card Mobile","","2","203-437-3673","300 Chase Ave","Waterbury","CT","6704","41.582616","-73.034309"
"Starbucks","8645","Southington - Queen Street","Company Owned","""Lunch, Oven-warmed Food""","""Starbucks Card Mobile, Wireless Hotspot""","","7","860-621-6611","613 Queen Street","Southington","CT","6489","41.633336","-72.8731"
"Starbucks","7824","Cos Cob","Company Owned","""Lunch, Oven-warmed Food, Reserve Amenity""","""Starbucks Card Mobile, Wireless Hotspot""","","9","203-661-1543","624 East Putnam Avenue","Cos Cob","CT","6807","41.041039","-73.593243"
"Starbucks","7836","Rocky Hill","Company Owned","""Lunch, Oven-warmed Food""","""Starbucks Card Mobile, Wireless Hotspot""","","7","860-257-3200","412 Cromwell Avenue","Rocky Hill","CT","6067","41.658722","-72.67767"
"Starbucks","13587","North Merrick","Company Owned","""Lunch, Oven-warmed Food""","""Starbucks Card Mobile, Wireless Hotspot""","","7","516-771-1904","1713 Merrick Avenue","North Merrick","NY","11566","40.676603","-73.557083"
"Starbucks","7302","Merrick","Company Owned","""Clover Crafted Small Batch Coffee, Lunch, Oven-warmed Food, Reserve Amenity, Sirena Espresso Machine""","""iTunes WiFi Music Store, Starbucks Card Mobile, Wireless Hotspot""","","22","516-379-7467","2015 Merrick Road","Merrick","NY","11566","40.656694","-73.549659"
"Starbucks","14543","""Bethel, Big Y Plaza""","Company Owned","""Lunch, Oven-warmed Food""","""Starbucks Card Mobile, Wireless Hotspot""","Drive-Through","8","203-797-8265","87A Stony Hill Road","Bethel","CT","6801","41.412774096335","-73.379091046721"
"Starbucks","7287","Ridgefield","Company Owned","""Clover Crafted Small Batch Coffee, Lunch, Oven-warmed Food, Reserve Amenity, Sirena Espresso Machine""","""Starbucks Card Mobile, Wireless Hotspot""","","17","203-431-8914","90 Danbury Road","Ridgefield","CT","6877","41.29162","-73.493863"
"Starbucks","7247","Uniondale","Company Owned","""Lunch, Oven-warmed Food""","""iTunes WiFi Music Store, Starbucks Card Mobile, Wireless Hotspot""","","12","516-565-9886","1228 Hempstead Turnpike","Uniondale","NY","11553","40.718815","-73.589683"
"Starbucks","7633","Watertown","Company Owned","""Lunch, Oven-warmed Food""","""Starbucks Card Mobile, Wireless Hotspot""","","7","860-945-3070","1156 Main St","Watertown","CT","6795","41.59314","-73.109985"
"Starbucks","2850","Plainville","Company Owned","""Lunch, Oven-warmed Food""","""Starbucks Card Mobile, Wireless Hotspot""","","7","860-747-4977","275 New Britain Ave","Plainville","CT","6062","41.677105","-72.839815"
"Starbucks","7645","Bristol Plaza","Company Owned","""Lunch, Oven-warmed Food""","""Starbucks Card Mobile, Wireless Hotspot""","","7","860-585-8232","641 Farmington Ave","Bristol","CT","6010","41.692044","-72.922783"
"Starbucks","9985","""Springfield, E. Columbus Blvd""","Company Owned","""Lunch, Oven-warmed Food, Reserve Amenity""","Starbucks Card Mobile","Drive-Through","7","413-732-5173","1089 East Columbus Ave.","Springfield","MA","1105","42.095938","-72.585034"
"Starbucks","7400","Longmeadow Shops/Springfield","Company Owned","""Lunch, Oven-warmed Food""","""Starbucks Card Mobile, Wireless Hotspot""","","7","413-565-5283","708 Bliss Road","Longmeadow","MA","1106","42.056857","-72.554956"
"Starbucks","10202","E. Longmeadow Center","Company Owned","""Lunch, Oven-warmed Food""","""Starbucks Card Mobile, Wireless Hotspot""","","7","413-525-3877","42 N. Main Street","East Longmeadow","MA","1028","42.065707","-72.513945"
"Starbucks","7883","Enfield","Company Owned","""Lunch, Oven-warmed Food""","""Starbucks Card Mobile, Wireless Hotspot""","","7","860-741-6868","9 HAZARD AVE","Enfield","CT","6082","41.99041","-72.583286"
"Starbucks","9834","""Westfield, East Main St""","Company Owned","""Lunch, Oven-warmed Food""","Starbucks Card Mobile","Drive-Through","5","413-572-9910","280A East Main Street","Westfield","MA","1085","42.114737","-72.727496"
"Starbucks","11128","Holyoke Mall","Company Owned","""Lunch, Oven-warmed Food""","Starbucks Card Mobile","","4","413-552-3130","""50 Holyoke Street, B322""","Holyoke","MA","1040","42.169405","-72.641246"
"Starbucks","8808","Chicopee","Company Owned","""Lunch, Oven-warmed Food""","""Starbucks Card Mobile, Wireless Hotspot""","Drive-Through","8","413-593-1457","620 Memorial Dr","Chicopee","MA","1020","42.175642","-72.575957"
"Starbucks","7913","Granby","Company Owned","""Lunch, Oven-warmed Food""","""Starbucks Card Mobile, Wireless Hotspot""","","7","860-844-8569","10 Hartford Ave Space D-1","Granby","CT","6035","41.952325","-72.787192"
"Starbucks","76679","Target - Windsor T-2213","Licensed","","Starbucks Card Mobile","","2","860-907-3068","1075 Kennedy Rd","Windsor","CT","6095","41.892804","-72.650429"
"Starbucks","9640","Simsburytown Shops","Company Owned","""Lunch, Oven-warmed Food""","""Starbucks Card Mobile, Wireless Hotspot""","","7","860-651-7957","930 Hopmeadow Rd","Simsbury","CT","6070","41.881123","-72.799849"
"Starbucks","878","Northampton","Company Owned","""Clover Crafted Small Batch Coffee, Lunch, Oven-warmed Food, Reserve Amenity""","""Starbucks Card Mobile, Wireless Hotspot""","","14","413-582-0041","211 Main Street","Northampton","MA","1060","42.318021","-72.632136"
"Starbucks","4730","Stop & Shop - Northampton #787","Licensed","","","","0","413-584-9200","228 King St","Northampton","MA","1060","42.32822","-72.63373"
"Starbucks","10500","""Manchester, Deming St.""","Company Owned","""Lunch, Oven-warmed Food""","""Starbucks Card Mobile, Wireless Hotspot""","Drive-Through","8","860-644-1919","172 Deming Street","Manchester","CT","6042","41.813307","-72.526614"
"Starbucks","9423","Bloomfield - Gillete Ridge Plaza","Company Owned","""Lunch, Oven-warmed Food""","""Starbucks Card Mobile, Wireless Hotspot""","","7","860-726-9695","852 Cottage Grove Road","Bloomfield","CT","6002","41.817261","-72.739723"
"Starbucks","851","Manchester","Company Owned","""Lunch, Oven-warmed Food""","""Starbucks Card Mobile, Wireless Hotspot""","","7","860-644-3736","1428A Pleasant Valley Road","Manchester","CT","6042","41.805597","-72.558927"
"Starbucks","848","Bishops Corner","Company Owned","""Lunch, Oven-warmed Food""","""Starbucks Card Mobile, Wireless Hotspot""","","7","860-236-7778","2475 Albany Avenue","West Hartford","CT","6117","41.785712","-72.745338"
"Starbucks","6999","""Manchester, Spencer Street""","Company Owned","""Lunch, Oven-warmed Food""","""Starbucks Card Mobile, Wireless Hotspot""","Drive-Through","8","860-647-1523","185 Spencer St","Manchester","CT","6040","41.767475","-72.568745"
"Starbucks","7306","Hartford/City Place","Company Owned","""Lunch, Oven-warmed Food""","""Starbucks Card Mobile, Wireless Hotspot""","","7","860-527-1225","185 Asylum Street","Hartford","CT","6103","41.766656","-72.676489"
"Starbucks","75175","Marriott Hartford - Lobby","Licensed","","Wireless Hotspot","","1","860-249-8000","200 Columbus Blvd","Hartford","CT","6103","41.763864","-72.669568"
"Starbucks","7508","Avon Marketplace","Company Owned","""Lunch, Oven-warmed Food, Reserve Amenity, Sirena Espresso Machine""","""Starbucks Card Mobile, Wireless Hotspot""","","12","860-677-1275","""380 West Main Street, #7""","Avon","CT","6001","41.81487","-72.859739"
"Starbucks","7251","Amherst","Company Owned","""Lunch, Oven-warmed Food""","""Starbucks Card Mobile, Wireless Hotspot""","","7","413-256-1669","71 North Pleasant Street","Amherst","MA","1002","42.376785","-72.519674"
"Starbucks","853","LaSalle","Company Owned","""Clover Crafted Small Batch Coffee, Lunch, Oven-warmed Food, Reserve Amenity""","""Starbucks Card Mobile, Wireless Hotspot""","","14","860-523-5944","21 LaSalle Road","West Hartford","CT","6107","41.760494","-72.744982"
"Starbucks","7300","Glastonbury","Company Owned","""Lunch, Oven-warmed Food""","""Starbucks Card Mobile, Wireless Hotspot""","","7","860-652-8945","140 Glastonbury Road","Glastonbury","CT","6033","41.720388","-72.620957"
"Starbucks","10949","""Glastonbury, Hebron Avenue""","Company Owned","""Lunch, Oven-warmed Food""","""Starbucks Card Mobile, Wireless Hotspot""","Drive-Through","8","860-368-2434","70 Hebron Ave","Glastonbury","CT","6033","41.712494","-72.606882"
"Starbucks","7740","Corbin's Corner","Company Owned","""Lunch, Oven-warmed Food""","""Starbucks Card Mobile, Wireless Hotspot""","","7","860-561-2558","1449B New Britain Ave","West Hartford","CT","6110","41.725203","-72.757339"
"Starbucks","11678","Westfarms Mall","Company Owned","Lunch","Starbucks Card Mobile","","2","860-313-0836","""500 Westfarms Rd., F100""","Farmington","CT","6032","41.722398535122","-72.762414920546"
"Starbucks","4195","Stop & Shop-Glastonbury #605","Licensed","","","","0","860-652-8925","55 Oak St","Glastonbury","CT","6033","41.706795","-72.59318"
"Starbucks","7616","""Rte 4, Farmington""","Company Owned","""Lunch, Oven-warmed Food, Sirena Espresso Machine""","""Starbucks Card Mobile, Wireless Hotspot""","","10","860-674-8405","838 Farmington Avenue","Farmington","CT","6032","41.727768","-72.826698"
"Starbucks","8644","Wethersfield Rte. 99 & Mill St.","Company Owned","""Lunch, Oven-warmed Food""","""Starbucks Card Mobile, Wireless Hotspot""","Drive-Through","8","860-529-5228","1090 Silas Deane Highway","Wethersfield","CT","6109","41.692535","-72.655241"
"Starbucks","7751","""Newington, Main Street""","Company Owned","""Lunch, Oven-warmed Food""","""Starbucks Card Mobile, Wireless Hotspot""","","7","860-878-6963","995 Main Street","Newington","CT","6111","41.698185","-72.724407"
"Starbucks","7863","Storrs","Company Owned","""Lunch, Oven-warmed Food""","""Starbucks Card Mobile, Wireless Hotspot""","","7","860-429-1117","1244 Storrs Rd","Storrs","CT","6268","41.803169","-72.242154"
"Starbucks","76851","Target Torrington T-2305","Licensed","","Starbucks Card Mobile","","2","860-618-4007","1922 E Main St","Torrington","CT","6790","41.821057","-73.077459"
"Starbucks","76958","Target Killingly T-2432","Licensed","","Starbucks Card Mobile","","2","860-779-2431","2177 Killingly Commons","Dayville","CT","6241","41.8493","-71.9206"
"Starbucks","3434","Pittsfield","Company Owned","""Lunch, Oven-warmed Food, Reserve Amenity""","""Starbucks Card Mobile, Wireless Hotspot""","Drive-Through","10","413-442-5862","555 Hubbard Avenue","Pittsfield","MA","1201","42.468554","-73.196917"
"Starbucks","7741","Auburn Centre","Company Owned","""Lunch, Oven-warmed Food, Reserve Amenity, Sirena Espresso Machine""","""Starbucks Card Mobile, Wireless Hotspot""","","12","508-721-9475","434A Southbridge Street (Route 12)","Auburn","MA","1501","42.201369","-71.839595"
"Starbucks","76550","Target Lanesborough T-2127","Licensed","","Starbucks Card Mobile","","2","413-499-1379","655 Cheshire Rd","Lanesboro","MA","1237","42.544937","-73.183173"
"Starbucks","7862","""Worcester, One West Boylston Street""","Company Owned","""Lunch, Oven-warmed Food, Reserve Amenity""","""Starbucks Card Mobile, Wireless Hotspot""","","9","508-595-9315","1 West Boylston Street","Worcester","MA","1605","42.288912","-71.807543"
"Starbucks","9986","""Worcester, East Central Street""","Company Owned","""Lunch, Oven-warmed Food, Reserve Amenity""","""Starbucks Card Mobile, Wireless Hotspot""","Drive-Through","10","508-756-4048","11 East Central Street","Worcester","MA","1605","42.266772","-71.794518"
"Starbucks","3857","Target Lisbon T-2433","Licensed","","Starbucks Card Mobile","","2","860-823-2960","195 River Rd","Lisbon","CT","6351","41.582169","-71.997417"
"Starbucks","15679","Target Westborough T-1496","Licensed","","","","0","508-366-1426","330 Turnpike Rd","Westborough","MA","1581","42.282608","-71.652668"
"Starbucks","16899","Northborough","Company Owned","""Lunch, Oven-warmed Food""","Wireless Hotspot","Drive-Through","4","508-393-2837","1104 Shops Way","Northborough","MA","1532","42.322009","-71.646878"
"Starbucks","10190","New Milford","Company Owned","""Lunch, Oven-warmed Food""","""Starbucks Card Mobile, Wireless Hotspot""","Drive-Through","8","860-354-2508","38 Danbury Road","New Milford","CT","6776","41.568945","-73.414812"
"Starbucks","76553","Target Keene T-2120","Licensed","","Starbucks Card Mobile","","2","603-357-1692","46 Ash Brook Rd","Keene","NH","3431","42.927999","-72.305493"
"Starbucks","8810","Keene","Company Owned","""Lunch, Oven-warmed Food, Reserve Amenity""","""Starbucks Card Mobile, Wireless Hotspot""","Drive-Through","10","603-357-6061","281 West Street","Keene","NH","3431","42.932761","-72.288682"
"Starbucks","10274","Solomon Pond Mall","Company Owned","""Lunch, Oven-warmed Food""","""Starbucks Card Mobile, Wireless Hotspot""","","7","508-460-0756","""601 Donald Lynch Boulevard, N143""","Marlborough","MA","1752","42.354499","-71.61492"
"Starbucks","7742","Westborough Shopping Center","Company Owned","""Clover Crafted Small Batch Coffee, Lunch, Oven-warmed Food, Reserve Amenity, Sirena Espresso Machine""","""Starbucks Card Mobile, Wireless Hotspot""","","17","508-898-9421","140 Turnpike St","Westborough","MA","1581","42.284518","-71.609896"
"Starbucks","73864","Roche Bros - Westboro #119","Licensed","","Wireless Hotspot","","1","508-836-3600","1100 Union St","Westboro","MA","1581","42.269989","-71.608097"
"Starbucks","845","Marlborough","Company Owned","""Lunch, Oven-warmed Food, Reserve Amenity, Sirena Espresso Machine""","""Starbucks Card Mobile, Wireless Hotspot""","","12","508-485-8223","187 Boston Post Road","Marlborough","MA","1752","42.339345","-71.58916"
"Starbucks","7831","""Marlborough, South Bolton St""","Company Owned","""Lunch, Oven-warmed Food, Sirena Espresso Machine""","""Starbucks Card Mobile, Wireless Hotspot""","","10","508-486-9724","23 South Bolton Street","Marlborough","MA","1752","42.346238","-71.546413"
"Starbucks","2950","Southborough","Company Owned","""Lunch, Oven-warmed Food, Reserve Amenity""","""Starbucks Card Mobile, Wireless Hotspot""","","9","508-486-9909","""154 Turnpike Road, Rte 9""","Southborough","MA","1772","42.292092","-71.520206"
"Starbucks","15149","Target Marlborough T-2570","Licensed","","","","0","508-251-6957","650 Boston Post Rd E","Marlborough","MA","1752","42.349948","-71.505021"
"Starbucks","8958","Medway","Company Owned","""Lunch, Oven-warmed Food, Reserve Amenity, Sirena Espresso Machine""","""Starbucks Card Mobile, Wireless Hotspot""","","12","508-533-3620","""67A Main Street, Unit 104""","Medway","MA","2053","42.152717","-71.404726"
"Starbucks","76484","Target Lincoln T-2073","Licensed","","Starbucks Card Mobile","","2","401-642-0080","620 George Washington Hwy","Lincoln","RI","2865","41.935062","-71.47991"
"Starbucks","9925","Lincoln Mall Pad","Company Owned","""Lunch, Oven-warmed Food""","""Starbucks Card Mobile, Wireless Hotspot""","Drive-Through","8","401-333-9580","622 George Washington Hwy (Rte 116)","Lincoln","RI","2865","41.935823","-71.477414"
"Starbucks","7228","RT 109/Westwood","Company Owned","""Lunch, Oven-warmed Food, Reserve Amenity""","""Starbucks Card Mobile, Wireless Hotspot""","","9","781-329-5421","736 High Street","Westwood","MA","2090","42.223196","-71.222667"
"Starbucks","15513","Target Smithfield T-1404","Licensed","","","","0","401-232-1699","""371 Putnam Pike, A-250""","Smithfield","RI","2917","41.870143","-71.522986"
"Starbucks","76314","Target Plainville T-1930","Licensed","","Starbucks Card Mobile","","2","508-643-5008","103 Taunton St","Plainville","MA","2762","42.033823","-71.310626"
"Starbucks","10378","""Walpole, Rt. 1""","Company Owned","""Lunch, Oven-warmed Food, Reserve Amenity""","""Starbucks Card Mobile, Wireless Hotspot""","Drive-Through","10","508-668-2701","985 Route 1","Walpole","MA","2081","42.140065","-71.21931"
"Starbucks","3433","Norwood Rte. 1 North","Company Owned","""Lunch, Oven-warmed Food, Reserve Amenity, Sirena Espresso Machine""","""Starbucks Card Mobile, Wireless Hotspot""","Drive-Through","13","781-255-5805","1000 Providence Highway","Norwood","MA","2062","42.178159","-71.190462"
"Starbucks","7419","Wayland Sq./Providence","Company Owned","""Clover Crafted Small Batch Coffee, Lunch, Oven-warmed Food, Reserve Amenity""","""Starbucks Card Mobile, Wireless Hotspot""","","14","401-831-9481","468 Angell Street","Providence","RI","2906","41.830143","-71.388953"
"Starbucks","10513","East Greenbush","Company Owned","""Lunch, Oven-warmed Food""","""Starbucks Card Mobile, Wireless Hotspot""","Drive-Through","8","518-286-3153","599 N Greenbush Rd.","Rensselaer","NY","12144","42.646333","-73.697346"
"Starbucks","7922","""North Pearl Street, COB""","Company Owned","Lunch","Starbucks Card Mobile","","2","518-463-6990","10 North Pearl St","Albany","NY","12207","42.650158","-73.752723"
"Starbucks","11275","New Scotland Avenue","Company Owned","""Lunch, Oven-warmed Food""","""Starbucks Card Mobile, Wireless Hotspot""","","7","518-694-8171","62 New Scotland Ave","Albany","NY","12208","42.652296","-73.776193"
"Starbucks","75922","Hilton Providence Lobby","Licensed","","Wireless Hotspot","","1","401-831-3900","21 Atwells Ave","Providence","RI","2903","41.822895","-71.418661"
"Starbucks","13661","Biltmore Hotel","Company Owned","""Lunch, Oven-warmed Food""","""Starbucks Card Mobile, Wireless Hotspot""","","7","401-351-5760","11 Dorrance St.","Providence","RI","2903","41.824637","-71.413724"
"Starbucks","7355","Garden City-Cranston","Company Owned","""Lunch, Oven-warmed Food, Sirena Espresso Machine""","""Starbucks Card Mobile, Wireless Hotspot""","","10","401-464-8235","4 Midway Road","Cranston","RI","2920","41.76388","-71.458034"
"Starbucks","9667","""Providence, One Financial""","Company Owned","""Lunch, Oven-warmed Food""","""Starbucks Card Mobile, Wireless Hotspot""","","7","401-351-4614","1 Financial Plaza","Providence","RI","2903","41.825764","-71.409937"
"Starbucks","78055","Johnson & Wales University-Providen","Licensed","","Wireless Hotspot","","1","401-598-2195","59 Chestnut Street","Providence","RI","2903","41.819347","-71.412857"
"Starbucks","7219","Thayer Street","Company Owned","""Lunch, Oven-warmed Food""","""Starbucks Card Mobile, Wireless Hotspot""","","7","401-421-1677","218 Thayer Street","Providence","RI","2906","41.827555","-71.400746"
"Starbucks","15660","Macy's Warwick Mall #39","Licensed","","","","0","401-468-3778","400 Bald Hill Rd","Warwick","RI","2886","41.723658","-71.480659"
"Starbucks","7430","Warwick-Baldhill Rd.","Company Owned","""Lunch, Oven-warmed Food, Sirena Espresso Machine""","""Starbucks Card Mobile, Wireless Hotspot""","Drive-Through","11","401-823-9645","""25 Pace Blvd, Unit A""","Warwick","RI","2886","41.702952","-71.496661"
"Starbucks","76938","Target Warwick North T-2430","Licensed","","Starbucks Card Mobile","","2","401-244-1972","400 Bald Hill Rd","Warwick","RI","2886","41.722666","-71.475673"
"Starbucks","3917","Johnson & Wales-Harborside Campus-L","Licensed","Oven-warmed Food","Wireless Hotspot","","2","401-598-2395","321 Harborside Blvd","Providence","RI","2905","41.787941","-71.387075"
"Starbucks","78027","PVD Baggage Claim","Licensed","","Wireless Hotspot","","1","401-732-5140","2000 Post Road","Warwick","RI","2886","41.725977","-71.435584"
"Starbucks","78039","PVD Main Food Court","Licensed","","Wireless Hotspot","","1","401-732-5040","2000 Post Road","Warwick","RI","2886","41.725636","-71.435289"
"Starbucks","13668","""Warwick, Airport Rd""","Company Owned","""Lunch, Oven-warmed Food""","""Starbucks Card Mobile, Wireless Hotspot""","Drive-Through","8","401-732-3397","35 Airport Rd","WARWICK","RI","2889","41.733522","-71.408361"
"Starbucks","7678","East Greenwich/Main St","Company Owned","""Lunch, Oven-warmed Food, Sirena Espresso Machine""","""Starbucks Card Mobile, Wireless Hotspot""","","10","401-885-1291","555 Main Street","East Greenwich","RI","2818","41.656773","-71.453012"
"Starbucks","72431","New Baltimore Travel Plaza","Licensed","","Wireless Hotspot","","1","518-756-3000","Mile Marker 127 South-NY State Thruway","Hannacroix","NY","12087","42.412254","-73.900038"
"Starbucks","75393","College St. Rose","Licensed","","Wireless Hotspot","","1","518-485-3946","420 Western Ave","Albany","NY","12203","42.664133","-73.78549"
"Starbucks","7390","Newton Plaza-Loudonville","Company Owned","""Lunch, Oven-warmed Food""","""Starbucks Card Mobile, Wireless Hotspot""","","7","518-783-4544","594 New Loudon Road","Latham","NY","12110","42.727609","-73.760987"
"Starbucks","79349","Price Chopper - Slingerlands #159","Licensed","","","","0","518-478-0688","1395 New Scotland Rd","Slingerlands","NY","12159","42.638935","-73.856669"
"Starbucks","11194","1244 Western Ave","Company Owned","""Lunch, Oven-warmed Food""","""Starbucks Card Mobile, Wireless Hotspot""","Drive-Through","8","518-591-0372","1244 Western Avenue","Albany","NY","12203","42.678408","-73.830357"
"Starbucks","13452","""Latham, Troy-Schenectady Road""","Company Owned","""Lunch, Oven-warmed Food""","Starbucks Card Mobile","Drive-Through","5","518-783-0568","549 Troy-Schenectady Road","Latham","NY","12110","42.750984","-73.764417"
"Starbucks","11810","""Colonie, Albany-Shaker & Wolf Rd""","Company Owned","""Lunch, Oven-warmed Food""","Starbucks Card Mobile","Drive-Through","5","518-482-2370","243 Wolf Rd","Albany","NY","12205","42.726624","-73.795394"
"Starbucks","76286","Target Latham T-1915","Licensed","","Starbucks Card Mobile","","2","518-782-0348","675 Troy Schenectady Rd","Latham","NY","12110","42.756562","-73.770597"
"Starbucks","7379","Wolfe Road","Company Owned","""Lunch, Oven-warmed Food, Sirena Espresso Machine""","""Starbucks Card Mobile, Wireless Hotspot""","","10","518-435-9280","18 Wolf Rd","Albany","NY","12205","42.710686","-73.8202"
"Starbucks","15207","Target Colonie T-1268","Licensed","","","","0","518-489-1112","1440 Central Ave","Albany","NY","12205","42.706944","-73.823283"
"Starbucks","3503","ALB Concourse B Times Square","Licensed","","Wireless Hotspot","","1","518-242-4333","737 Albany-Shaker Road","Albany","NY","12211","42.74142","-73.80833"
"Starbucks","7335","Stuyvesant Plaza","Company Owned","""Lunch, Oven-warmed Food, Sirena Espresso Machine""","""Starbucks Card Mobile, Wireless Hotspot""","","10","518-489-1064","1475 Western Avenue","Albany","NY","12203","42.68333","-73.840214"
"Starbucks","11064","Crossgates Mall","Company Owned","""Lunch, Oven-warmed Food""","""Starbucks Card Mobile, Wireless Hotspot""","","7","518-218-1520","""1 Crossgates Mall Road, B231""","Albany","NY","12203","42.68709","-73.85045"
"Starbucks","75892","NY Ulster Travel Plaza","Licensed","","Wireless Hotspot","","1","845-336-8129","New York State Thruway Mile Post 96 Sout","Ruby","NY","12475","42.01765","-74.014471"
"Starbucks","2851","New Fairfield","Company Owned","""Lunch, Oven-warmed Food""","""Starbucks Card Mobile, Wireless Hotspot""","","7","203-746-1733","5 Rt 39","New Fairfield","CT","6812","41.467323","-73.486207"
"Starbucks","7639","Canton-Cobbs Corner","Company Owned","""Lunch, Oven-warmed Food, Reserve Amenity""","""Starbucks Card Mobile, Wireless Hotspot""","","9","781-830-9136","95 Washington Street","Canton","MA","2021","42.140561","-71.147766"
"Starbucks","76781","Target Easton T-2267","Licensed","","Starbucks Card Mobile","","2","508-230-0005","41 Robert Dr","Easton","MA","2375","42.027340017339","-71.143449505102"
"Starbucks","76965","Target Stoughton T-2258","Licensed","","Starbucks Card Mobile","","2","781-847-4000","1 Hawes Way","Stoughton","MA","2072","42.152479","-71.073044"
"Starbucks","7664","Clifton Park","Company Owned","""Lunch, Oven-warmed Food""","""Starbucks Card Mobile, Wireless Hotspot""","","7","518-373-5794","9 Clifton County Road","Clifton Park","NY","12065","42.859828","-73.781512"
"Starbucks","14269","N Kingstown Crossing","Company Owned","""Lunch, Oven-warmed Food""","""Starbucks Card Mobile, Wireless Hotspot""","Drive-Through","8","401-295-5236","1370 Ten Rod Road","N Kingstown","RI","2852","41.581611","-71.502151"
"Starbucks","7692","Seekonk","Company Owned","""Lunch, Oven-warmed Food, Sirena Espresso Machine""","""Starbucks Card Mobile, Wireless Hotspot""","Drive-Through","11","508-336-8626","2 Commerce Way","Seekonk","MA","2771","41.793401","-71.325299"
"Starbucks","7272","The Barrington Shopping Center","Company Owned","""Lunch, Oven-warmed Food, Sirena Espresso Machine""","""Starbucks Card Mobile, Wireless Hotspot""","","10","401-247-4687","180 County Road","Barrington","RI","2806","41.7372","-71.30413"
"Starbucks","10397","""Schenectady, Watt St.""","Company Owned","""Lunch, Oven-warmed Food""","""Starbucks Card Mobile, Wireless Hotspot""","Drive-Through","8","518-347-1716","2441 Watt Street","Schenectady","NY","12304","42.783641","-73.913618"
"Starbucks","7363","Niskayuna- Albany","Company Owned","Lunch","""Starbucks Card Mobile, Wireless Hotspot""","","5","518-381-9340","2321-3 Nott Street East","Niskayuna","NY","12309","42.815403425888","-73.890864887226"
"Starbucks","10515","""Kingston, NY""","Company Owned","""Lunch, Oven-warmed Food""","""Starbucks Card Mobile, Wireless Hotspot""","Drive-Through","8","845-336-5304","39 Massa Drive","Kingston","NY","12401","41.962689","-73.988998"
"Starbucks","7351","Broadway-Saratoga Springs","Company Owned","""Lunch, Oven-warmed Food""","""Starbucks Card Mobile, Wireless Hotspot""","","7","518-581-9498","351 Broadway","Saratoga Springs","NY","12866","43.080376","-73.78598"
"Starbucks","7936","Arlington Square - Route 44","Company Owned","""Lunch, Oven-warmed Food""","""Starbucks Card Mobile, Wireless Hotspot""","Drive-Through","8","845-485-6294","712 Duchess Tpke","Poughkeepsie","NY","12603","41.698343","-73.880168"
"Starbucks","7705","Mid-Hudson","Company Owned","""Lunch, Oven-warmed Food""","""Starbucks Card Mobile, Wireless Hotspot""","","7","845-575-6736","3434 North Road","Poughkeepsie","NY","12601","41.724974","-73.93033"
"Starbucks","7889","Poughkeepsie - IBM","Company Owned","""Lunch, Oven-warmed Food, Reserve Amenity""","""Starbucks Card Mobile, Wireless Hotspot""","","9","845-462-5480","""2519 South Road (Rte 9), B""","Poughkeepsie","NY","12601","41.660854","-73.931053"
"Starbucks","7288","Danbury","Company Owned","""Lunch, Oven-warmed Food""","""Starbucks Card Mobile, Wireless Hotspot""","","7","203-748-0733","132 Federal Road","Danbury","CT","6811","41.42028","-73.41998"
"Starbucks","7499","New Paltz","Company Owned","""Lunch, Oven-warmed Food, Reserve Amenity""","""Starbucks Card Mobile, Wireless Hotspot""","","9","845-256-9815","1 Plattekill Avenue","New Paltz","NY","12561","41.747968","-74.085214"
"Starbucks","10047","""Fishkill, Ransley Square""","Company Owned","""Lunch, Oven-warmed Food, Reserve Amenity""","""Starbucks Card Mobile, Wireless Hotspot""","Drive-Through","10","845-897-1201","11 Merrit Boulevard (Route 9)","Fishkill","NY","12524","41.530711","-73.893395"
"Starbucks","7484","Danbury-Mill Plain Rd.","Company Owned","""Lunch, Oven-warmed Food, Reserve Amenity, Sirena Espresso Machine""","""Starbucks Card Mobile, Wireless Hotspot""","","12","203-778-0203","113 Mill Plain Road","Danbury","CT","6811","41.39424","-73.51588"
"Starbucks","14159","Danbury Fair Mall","Company Owned","Lunch","Starbucks Card Mobile","","2","203-798-8925","7 Backus Avenue","Danbury","CT","6810","41.380027","-73.480992"
"Starbucks","7681","""Carmel, NY""","Company Owned","""Lunch, Oven-warmed Food, Reserve Amenity""","""iTunes WiFi Music Store, Starbucks Card Mobile, Wireless Hotspot""","","14","845-225-6900","1876 Route 6","Carmel","NY","10512","41.414804","-73.669134"
"Starbucks","75891","NY Plattekill Travel Plaza","Licensed","","Wireless Hotspot","","1","845-564-5160","Mile Post 65N","Plattekill","NY","12568","41.617501","-74.076314"
"Starbucks","76357","Target Queensbury T-1830","Licensed","","Starbucks Card Mobile","","2","518-792-6016","578 Aviation Rd","Queensbury","NY","12804","43.326901","-73.676553"
"Starbucks","9529","Queensbury","Company Owned","""Lunch, Oven-warmed Food""","""Starbucks Card Mobile, Wireless Hotspot""","Drive-Through","8","518-761-1284","607 Aviation Rd","Queensbury","NY","12804","43.329225","-73.674846"
"Starbucks","15742","Newburgh","Company Owned","""Lunch, Oven-warmed Food""","Wireless Hotspot","Drive-Through","4","845-567-3528","1282 Route 300","Newburgh","NY","12550","41.507356","-74.068166"
"Starbucks","9052","Target Braintree T-2693","Licensed","","","","0","781-817-8809","250 Granite St","Braintree","MA","2184","42.218684","-71.023694"
"Starbucks","7712","""Brockton, Belmont Street""","Company Owned","""Lunch, Oven-warmed Food, Reserve Amenity, Sirena Espresso Machine""","""Starbucks Card Mobile, Wireless Hotspot""","","12","508-584-4223","1285 Belmont Street","Brockton","MA","2301","42.058941","-71.068068"
"Starbucks","7374","Weymouth","Company Owned","""Lunch, Oven-warmed Food, Reserve Amenity, Sirena Espresso Machine""","""Starbucks Card Mobile, Wireless Hotspot""","","12","781-331-4851","980 Main St","Weymouth","MA","2190","42.171351","-70.955057"
"Starbucks","76680","Target Abington T-2173","Licensed","","Starbucks Card Mobile","","2","781-347-9003","375 Centre Ave","Abington","MA","2351","42.11079","-70.93055"
"Starbucks","10377","""Hingham, Rte. 53""","Company Owned","""Lunch, Oven-warmed Food, Reserve Amenity""","""Starbucks Card Mobile, Wireless Hotspot""","","9","781-740-8870","1 Derby Street","Hingham","MA","2043","42.180973","-70.90172"
"Starbucks","7726","Taunton Depot","Company Owned","""Lunch, Oven-warmed Food, Sirena Espresso Machine""","""Starbucks Card Mobile, Wireless Hotspot""","","10","508-822-8381","65 H Taunton Depot Drive","Taunton","MA","2780","41.879002","-71.066607"
"Starbucks","15819","Target Taunton T-1189","Licensed","","","","0","508-824-8004","81 Taunton Depot Dr","Taunton","MA","2780","41.8786","-71.065732"
"Starbucks","11630","""Hanover, Washington St""","Company Owned","""Lunch, Oven-warmed Food, Reserve Amenity""","""Starbucks Card Mobile, Wireless Hotspot""","Drive-Through","10","781-681-9170","1972 Washington St.","Hanover","MA","2339","42.152876","-70.84664"
"Starbucks","5104","Target Hanover T-2532","Licensed","","Starbucks Card Mobile","","2","781-499-1961","1167 Washington Street","Hanover","MA","2339","42.13529","-70.84106"
"Starbucks","7885","Cohasset","Company Owned","""Lunch, Oven-warmed Food, Reserve Amenity, Sirena Espresso Machine""","""Starbucks Card Mobile, Wireless Hotspot""","Drive-Through","13","781-383-8760","790 Chief Justice Hwy","Cohasset","MA","2025","42.221207","-70.800098"
"Starbucks","15780","Target Swansea T-2607","Licensed","","","","0","774-488-3684","579 Grand Army Hwy","Swansea","MA","2777","41.747711","-71.206702"
"Starbucks","7602","Marshfield","Company Owned","""Lunch, Oven-warmed Food, Reserve Amenity""","""Starbucks Card Mobile, Wireless Hotspot""","Drive-Through","10","781-834-6598","""784 Plain St, Rte 139""","Marshfield","MA","2050","42.106232","-70.746918"
"Starbucks","11849","""Plymouth, Colony Place""","Company Owned","""Lunch, Oven-warmed Food, Reserve Amenity""","""Starbucks Card Mobile, Wireless Hotspot""","Drive-Through","10","508-732-9216","""100 Colony Place, Rt. 44""","Plymouth","MA","2360","41.952999","-70.714528"
"Starbucks","5022","Stop & Shop-Plymouth #469","Licensed","","","","0","508-746-1444","127 Samoset Street","Plymouth","MA","2360","41.953785","-70.684105"
"Starbucks","7599","Aquidneck Centre","Company Owned","""Lunch, Oven-warmed Food, Sirena Espresso Machine""","""Starbucks Card Mobile, Wireless Hotspot""","","10","401-849-1217","85 East Main Road","Middletown","RI","2842","41.517442","-71.296596"
"Starbucks","76700","Target North Dartmouth T-2167","Licensed","","Starbucks Card Mobile","","2","508-979-7530","479 State Rd","North Dartmouth","MA","2747","41.638403","-71.002497"
"Starbucks","7229","Thames Street","Company Owned","""Lunch, Oven-warmed Food""","""Starbucks Card Mobile, Wireless Hotspot""","","7","401-841-5899","212 Thames Street","Newport","RI","2840","41.487673","-71.314903"
"Starbucks","2798","""Wakefield, Belmont Plaza""","Company Owned","""Lunch, Oven-warmed Food""","""Starbucks Card Mobile, Wireless Hotspot""","","7","401-788-9313","600 Kingstown Rd","Wakefield","RI","2879","41.440378","-71.488552"
"Starbucks","76837","Target Wareham T-2292","Licensed","","Starbucks Card Mobile","","2","508-273-0436","2421 Cranberry Hwy","Wareham","MA","2571","41.777279","-70.747245"
"Starbucks","14474","""Bourne, Rt. 6""","Company Owned","""Lunch, Oven-warmed Food""","""Starbucks Card Mobile, Wireless Hotspot""","Drive-Through","8","508-743-0351","2 Bridge Approach Street","Bourne","MA","2532","41.751891","-70.594271"
"Starbucks","7250","Mashpee","Company Owned","""Lunch, Oven-warmed Food, Reserve Amenity, Sirena Espresso Machine""","""Starbucks Card Mobile, Wireless Hotspot""","","12","508-477-5806","6 Market Street","Mashpee","MA","2649","41.616103214342","-70.4854"
"Starbucks","73958","Roche Bros - Mashpee #117","Licensed","","","","0","508-477-5558","11 Donnas Lane","Mashpee","MA","2649","41.611585537247","-70.488444303454"
"Starbucks","7418","Falmouth","Company Owned","""Lunch, Oven-warmed Food, Reserve Amenity, Sirena Espresso Machine""","""Starbucks Card Mobile, Wireless Hotspot""","Drive-Through","13","508-540-4949","11 Davis Straights/ Route 28","Falmouth","MA","2540","41.555502","-70.599396"
"Starbucks","15703","""Hyannis, Iyannough Rd""","Company Owned","""Lunch, Oven-warmed Food""","Wireless Hotspot","","3","508-771-4880","""655 Iyannough Rd, 6""","Hyannis","MA","2601","41.667193","-70.291905"
"Starbucks","73943","Stop & Shop-South Dennis #461","Licensed","","","","0","508-394-4535","500 Rte 134","South Dennis","MA","2660","41.695540977658","-70.150576427081"
"Starbucks","4193","Stop & Shop-Orleans #64","Licensed","","","","0","508-255-5288","2110 Cranberry Cove Plaza","Orleans","MA","2653","41.7762","-69.9742"
"Starbucks","7850","Maine Crossing","Company Owned","""Oven-warmed Food, Sirena Espresso Machine""","""Starbucks Card Mobile, Wireless Hotspot""","","9","207-879-4380","200 Running Hill Road","South Portland","ME","4106","43.634182326847","-70.345295309702"
"Starbucks","7434","Maine Mall / South Portland","Company Owned","""Oven-warmed Food, Sirena Espresso Machine""","Starbucks Card Mobile","","6","207-761-0429","""364 Maine Mall Road, N135""","South Portland","ME","4106","43.632793","-70.333958"
"Starbucks","16156","PWM-International Terminal - Airsid","Licensed","","","","0","207-774-6371","947 Westbrook St","Portland","ME","4102","43.650327","-70.309663"
"Starbucks","7433","Hay Building","Company Owned","""Lunch, Oven-warmed Food""","""Starbucks Card Mobile, Wireless Hotspot""","","7","207-761-0334","594 Congress Street","Portland","ME","4101","43.654126","-70.262964"
"Starbucks","11917","""Portland, 1080 Forest Ave""","Company Owned","""Lunch, Oven-warmed Food""","""Starbucks Card Mobile, Wireless Hotspot""","Drive-Through","8","207-878-1210","1080 Forest Avenue","Portland","ME","4103","43.68404","-70.29151"
"Starbucks","7408","""Exchange Street-Portland, Maine""","Company Owned","""Lunch, Oven-warmed Food, Sirena Espresso Machine""","""Starbucks Card Mobile, Wireless Hotspot""","","10","207-761-2797","176 Middle St.","Portland","ME","4101","43.657548","-70.254594"
"Starbucks","2830","Northgate Plaza","Company Owned","""Lunch, Oven-warmed Food""","""Starbucks Card Mobile, Wireless Hotspot""","","7","207-878-6583","91 Auburn St","Portland","ME","4103","43.702836","-70.288496"
"Starbucks","11267","""Falmouth, Route 1""","Company Owned","""Lunch, Oven-warmed Food, Sirena Espresso Machine""","""Starbucks Card Mobile, Wireless Hotspot""","Drive-Through","11","207-781-2380","256 US Route 1","Falmouth","ME","4105","43.724471","-70.232926"
"Starbucks","75939","ME Turnpike- Cumberland Center Trav","Licensed","","","","0","207-829-3083","ME Turnpike South MM56","Cumberland Center","ME","4021","43.8023","-70.2676"
"Starbucks","75938","ME- Gray Tunpike Travel Plaza","Licensed","","","","0","207-829-3831","Maine Turnpike NORTH Mile Marker 57","Gray","ME","4039","43.887547","-70.32899"
"Starbucks","13715","""N. Conway, White Mountain Hwy""","Company Owned","""Lunch, Oven-warmed Food, Reserve Amenity""","""Starbucks Card Mobile, Wireless Hotspot""","Drive-Through","10","603-356-6860","""1456 White Mountain Hwy, Unit D10""","North Conway","NH","3860","43.978797582914","-71.117165"
